Commune,Wilaya,Statut,Pop_1998,Pop_2008,Taux_Croissance,Pop_2026,Pop_Tahat_2008,Taux_Activite_2008,Indicateur_Jeunesse_2008,Pop_Active_Est_2026,Jeunesse_Scolarisee_Est_2026,Zone_Sismique,Coef_Acceleration,Nombre_Total_Polices_assurances_seismes,Bien immobilier,Installation commerciale,Installation industrielle,Nb_Zones_Industrielles,Nb_Zones_Activite,Descriptions_ZI,Nb_Agences_GAM,Nb_Agences_Concurrents_Total,Nb_Agences_SAA,Nb_Agences_ALLIANCE,Nb_Agences_AXA,Nb_Agences_CAAR,Nb_Agences_CAAT,Nb_Agences_CASH,Nb_Agences_CIAR,Nb_Agences_TRUST,Concurrents_Noms,Has_GAM,Nb_Agences_GAM2,Capacite_Agences_Theorique,Deficit_Agences,Chiffre_Affaires_Potentiel_DA,Probabilite_Succes_%,Score_IA_Predictif,Lat_Commune,Lon_Commune,ar_name,post_code,Rank_National,Rank_Wilaya
El Bouni,Annaba,Commune,111956,125265,1.13,153334,9658.0,43.9,95.7,67314.0,146741.0,2.0,0.15,990.0,553.0,430.0,7.0,1,1,ZHUN / ZI,0,2,0,1,0,0,0,0,1,0,ALLIANCE|CIAR,0,0,10.0,8.0,50485500.00000001,100.0,100.0,36.8404084,7.6381562,البوني,23005,1,1
Es Sénia,Oran,Commune,64797,96928,4.11,200106,18397.0,45.8,93.3,91649.0,186699.0,2.0,0.15,194.0,145.0,46.0,3.0,1,1,ZI Es Senia,0,3,0,0,1,0,0,0,2,0,AXA|CIAR,0,0,13.0,10.0,68736750.0,100.0,100.0,35.5859,-0.618,السانية,31005,1,1
Djelfa,Djelfa,Province Capital,164126,289226,5.83,801946,92635.0,40.4,74.8,776770.0,1438178.0,4.0,0.25,14.0,10.0,3.0,1.0,1,1,ZI Djelfa,0,6,0,1,0,1,2,0,2,0,ALLIANCE|CAAR|CAAT|CIAR,0,0,53.0,47.0,582577500.0,100.0,99.37,34.6741226,3.2504381,الجلفة,17001,3,1
M'Sila,M'Sila,Province Capital,123059,156647,2.44,241868,,49.8,88.65,715809.0,11715.0,1.0,0.1,861.0,857.0,3.0,1.0,1,1,ZI M'sila,0,10,6,1,1,2,0,0,0,0,SAA|ALLIANCE|AXA|CAAR,0,0,16.0,6.0,536856750.00000006,100.0,95.42,,,,,4,1
Beni Mered,Blida,Commune,21457,34860,4.97,83501,13213.0,46.1,93.8,38494.0,78324.0,4.0,0.25,149.0,124.0,14.0,11.0,1,1,ZI Beni Mered,0,1,0,0,0,0,0,0,1,0,CIAR,0,0,5.0,4.0,28870500.0,94.42588669791516,90.52,36.5327654,2.8198593,بني مراد,09025,5,1
Ksar El Boukhari,Médéa,Commune,53637,67813,2.37,103428,3625.0,44.2,88.2,45715.0,91223.0,2.0,0.15,13.0,10.0,3.0,0.0,1,1,ZI ANIREF (200 ha),0,3,0,2,0,0,0,0,1,0,ALLIANCE|CIAR,0,0,6.0,3.0,34286250.0,84.63200525783736,84.24,35.8750361,2.6861545,قصر البخاري,26035,6,1
Bou Saâda,M'Sila,Commune,104336,125573,1.87,175278,23953.0,43.5,90.8,76246.0,159152.0,1.0,0.1,5.0,5.0,0.0,0.0,0,0,,0,2,0,0,0,0,1,0,1,0,CAAT|CIAR,0,0,11.0,9.0,57184500.0,70.0,69.83,35.2131065,4.0429152,بوسعادة,28020,7,2
Messaad,Djelfa,Commune,77754,102453,2.8,168333,4594.0,41.8,58.6,70363.0,98643.0,1.0,0.1,,,,,0,0,,0,0,0,0,0,0,0,0,0,0,,0,0,11.0,11.0,52772250.0,70.0,69.16,34.1658932,3.4682458,مسعد,17017,8,2
Rouissat,Ouargla,Commune,37814,58112,4.39,125942,39409.0,43.4,93.4,54659.0,117630.0,0.0,0.0,78.0,68.0,10.0,0.0,0,0,,0,0,0,0,0,0,0,0,0,0,,0,0,8.0,8.0,40994250.00000001,70.0,68.61,31.8694,5.3366,الرويسات,30005,9,1
Hassi Bahbah,Djelfa,Commune,61790,86421,3.41,158082,30913.0,40.6,85.5,64181.0,135160.0,1.0,0.1,1.0,1.0,0.0,0.0,0,0,,0,0,0,0,0,0,0,0,0,0,,0,0,10.0,10.0,48135750.0,70.0,68.34,35.0764297,2.9959141,حاسي بحبح,17004,10,3
Sougueur,Tiaret,Commune,64970,78956,1.97,112149,8325.0,45.2,88.3,50691.0,99028.0,1.0,0.1,16.0,10.0,4.0,2.0,0,0,,0,2,0,0,0,0,1,0,1,0,CAAT|CIAR,0,0,7.0,5.0,38018250.0,68.9967948928149,68.14,35.1812014,1.4648287,سوقر,14016,11,1
Oued Sly,Chlef,Commune,41245,47248,1.37,60340,47248.0,40.7,94.4,24558.0,56961.0,3.0,0.2,54.0,11.0,42.0,1.0,1,1,ZI Oued Sly,0,0,0,0,0,0,0,0,0,0,,0,0,4.0,4.0,18418500.0,89.2032764983478,68.02,36.0806537,1.1443351,واد سلي,02021,12,1
Aflou,Laghouat,Commune,53260,102025,6.72,328743,3129.0,40.3,90.6,132483.0,297841.0,1.0,0.1,14.0,14.0,0.0,0.0,0,0,,0,3,2,0,0,0,0,0,1,0,SAA|CIAR,0,0,21.0,18.0,99362250.0,70.0,66.27,34.1121156,2.0835167,أفلو,03019,13,1
Ouled Djellal,Biskra,Commune,45622,63237,3.32,113817,12032.0,40.7,80.1,46324.0,91167.0,0.0,0.0,3.0,3.0,0.0,0.0,0,0,,0,0,0,0,0,0,0,0,0,0,,0,0,7.0,7.0,34743000.00000001,67.36023212433682,65.85,34.4174639,4.9713028,أولاد جلال,07005,14,1
Chetouane,Tlemcen,Commune,35116,47600,3.09,82298,49150.0,44.9,95.9,36952.0,78924.0,1.0,0.1,5.0,5.0,0.0,0.0,0,1,ZA,0,0,0,0,0,0,0,0,0,0,,0,0,5.0,5.0,27714000.000000004,63.8480117748574,64.96,34.9175348,-1.3164927,شتوان,13050,15,1
Djamaa,El Oued,Commune,37438,50916,3.12,88558,59514.0,41.1,91.7,36397.0,81208.0,0.0,0.0,1.0,1.0,0.0,0.0,0,0,,0,0,0,0,0,0,0,0,0,0,,0,0,5.0,5.0,27297750.000000004,63.640021773367735,64.94,33.467,5.9903,جامعة,39028,16,1
Nezla,Ouargla,Commune,40524,51674,2.46,80035,20067.0,44.4,95.0,35536.0,76033.0,0.0,0.0,2.0,2.0,0.0,0.0,0,0,,0,0,0,0,0,0,0,0,0,0,,0,0,5.0,5.0,26652000.000000004,63.3173562034892,64.94,33.0167,6.0507,نزلة,30008,16,2
Béchar,Béchar,Province Capital,134954,165627,2.07,239460,4251.0,45.8,97.2,171055.0,363025.0,0.0,0.0,8.0,6.0,2.0,0.0,0,0,,0,7,0,1,0,1,1,0,3,1,ALLIANCE|CAAR|CAAT|CIAR|TRUST,0,0,15.0,8.0,128291250.0,70.0,64.68,31.5965368,-2.4145248,بشار,08001,18,1
Khemis El Khechna,Boumerdès,Commune,58573,75962,2.63,121287,48561.0,43.8,93.7,53124.0,113646.0,4.0,0.25,311.0,154.0,139.0,18.0,0,0,,0,2,0,0,0,0,0,0,2,0,CIAR,0,0,8.0,6.0,39843000.00000001,69.90857808853444,64.43,36.5858,3.3289,خميس الخشنة,35037,19,1
Kasdir,Naâma,Commune,1820,7492,15.2,95663,32518.0,45.2,92.2,43240.0,88201.0,1.5,0.125,,,,,0,0,,0,0,0,0,0,0,0,0,0,0,,0,0,6.0,6.0,32430000.0,66.2044822782213,64.23,33.6443,-1.3596,قصدير,45011,20,1
Aïn Sefra,Naâma,Commune,34962,52320,4.11,108093,7492.0,43.0,57.1,46480.0,61721.0,1.0,0.1,1.0,1.0,0.0,0.0,0,0,,0,1,1,0,0,0,0,0,0,0,SAA,0,0,7.0,6.0,34860000.0,67.41869417880959,63.33,32.6879,-0.585,عين الصفراء,45003,21,2
Hassi Bounif,Oran,Commune,44649,59671,2.94,100572,10882.0,45.2,91.2,45459.0,91722.0,2.0,0.15,50.0,45.0,5.0,0.0,0,0,,0,0,0,0,0,0,0,0,0,0,,0,0,6.0,6.0,34094250.00000001,67.0360675274205,63.17,35.635,-0.4999,حاسيْ بُونِيف,31004,22,2
Naâma,Naâma,Province Capital,8256,16251,7.01,54989,,38.4,89.35,156469.0,40505.0,1.5,0.125,,,,,0,0,,0,1,0,0,0,0,1,0,0,0,CAAT,0,0,3.0,2.0,117351750.0,45.0,63.06,33.195,-0.3131,النــعـامـة,45001,23,3
Tindouf,Tindouf,Province Capital,25266,45966,6.17,134976,,46.0,,66193.0,,,,,,,,0,0,,0,3,1,0,0,0,1,0,1,0,SAA|CAAT|CIAR,0,0,8.0,5.0,49644750.0,70.0,62.31,27.5972,-8.1491,تندوف,37001,24,1
Bordj El Bahri,El Djazaïr [Algiers],Commune,27905,52816,6.59,166539,51552.0,48.2,94.1,80272.0,156713.0,4.0,0.25,279.0,256.0,22.0,1.0,0,0,,0,6,3,2,0,0,0,0,1,0,SAA|ALLIANCE|CIAR,0,0,11.0,5.0,60204000.00000001,70.0,61.38,36.7880016,3.2321689,برج البحري,16039,25,1
El Guerrara,Ghardaïa,Commune,48313,59514,2.11,86620,21723.0,40.6,95.4,35168.0,82635.0,1.0,0.1,,,,,0,0,,0,0,0,0,0,0,0,0,0,0,,0,0,5.0,5.0,26376000.0,63.17944571601497,61.3,32.7226,4.4934,الڨرارة,47006,26,1
Ouled Slama,Blida,Commune,15956,29291,6.26,87416,36228.0,42.3,92.3,36977.0,80685.0,4.0,0.25,22.0,12.0,10.0,0.0,0,0,,0,0,0,0,0,0,0,0,0,0,,0,0,5.0,5.0,27732750.000000004,63.85738069384341,61.28,,,,,27,2
Oued Rhiou,Relizane,Commune,54435,64685,1.74,88241,30744.0,40.9,90.9,36091.0,80211.0,4.0,0.25,5.0,0.0,5.0,0.0,0,0,,0,0,0,0,0,0,0,0,0,0,,0,0,5.0,5.0,27068250.000000004,63.52534620497885,61.28,35.9035,0.9174,وادي رهيو,48002,27,1
Beni Tamou,Blida,Commune,22797,36228,4.74,83396,17297.0,42.7,92.6,35610.0,77225.0,4.0,0.25,96.0,73.0,15.0,8.0,0,0,,0,0,0,0,0,0,0,0,0,0,,0,0,5.0,5.0,26707500.0,63.34508820368781,61.28,36.5401306,2.7729529,بني تامو,09023,27,2
El Achour,El Djazaïr [Algiers],Commune,19524,41070,7.72,156619,12650.0,49.0,94.4,76743.0,147848.0,4.0,0.25,341.0,264.0,75.0,2.0,0,0,,0,7,1,3,2,1,0,0,0,0,SAA|ALLIANCE|AXA|CAAR,0,0,10.0,3.0,57557250.0,57.49999999999999,61.22,36.7269712,2.9530471,العاشور,16052,30,2
Bachdjerrah,El Djazaïr [Algiers],Commune,90073,93289,0.35,99370,35230.0,46.0,91.8,45710.0,91222.0,4.0,0.25,289.0,246.0,43.0,0.0,0,0,,0,2,0,1,0,0,0,0,1,0,ALLIANCE|CIAR,0,0,6.0,4.0,34282500.0,67.13013147404016,60.88,,,,,31,3
Ksar Chellala,Tiaret,Commune,40423,52753,2.7,85185,8181.0,45.6,73.1,38844.0,62270.0,1.0,0.1,1.0,1.0,0.0,0.0,0,0,,0,1,1,0,0,0,0,0,0,0,SAA,0,0,5.0,4.0,29133000.0,64.55705156371945,60.61,35.2197113,2.3002837,قصر الشلالة,14029,32,2
Méchria,Naâma,Commune,52898,66465,2.31,100247,5613.0,44.4,92.5,44510.0,92728.0,2.0,0.15,5.0,3.0,2.0,0.0,0,0,,0,1,1,0,0,0,0,0,0,0,SAA,0,0,6.0,5.0,33382500.0,66.68042336271117,60.53,33.4841,-0.2829,مشرية,45002,33,4
Meftah,Blida,Commune,52521,64978,2.15,95312,6543.0,43.9,96.0,41842.0,91500.0,3.0,0.2,53.0,38.0,10.0,5.0,0,0,,0,0,0,0,0,0,0,0,0,0,,0,0,6.0,6.0,31381500.0,65.68057232852304,60.4,36.6238272,3.1711838,مفتاح,09018,34,4
Draria,El Djazaïr [Algiers],Commune,23050,44141,6.71,142151,9287.0,49.1,82.1,69796.0,116706.0,4.0,0.25,417.0,334.0,83.0,0.0,0,0,,0,3,0,0,1,0,0,0,2,0,AXA|CIAR,0,0,9.0,6.0,52347000.0,70.0,59.58,36.7132847,2.9677778,درارية,16053,35,4
Chettia,Chlef,Commune,59960,71408,1.76,97800,71408.0,44.6,94.1,43619.0,92030.0,4.0,0.25,9.0,7.0,2.0,0.0,0,0,,0,0,0,0,0,0,0,0,0,0,,0,0,6.0,6.0,32714250.000000004,66.34651509004938,59.52,36.1782742,1.1791394,الشطية,02024,36,2
Tamalous,Skikda,Commune,39346,51262,2.68,82529,51262.0,44.4,93.0,36643.0,76752.0,2.0,0.15,5.0,4.0,1.0,0.0,0,0,,0,0,0,0,0,0,0,0,0,0,,0,0,5.0,5.0,27482250.0,63.73221193619018,59.52,36.8366625,6.6275453,تمالوس,21026,36,1
Sig,Mascara,Commune,60783,70499,1.49,92067,14600.0,43.4,80.6,39957.0,74206.0,2.0,0.15,17.0,16.0,1.0,0.0,0,0,,0,0,0,0,0,0,0,0,0,0,,0,0,6.0,6.0,29967750.000000004,64.97415583697708,59.52,35.4685,-0.184,سيڨ,29026,36,1
Oum El Bouaghi,Oum El Bouaghi,Province Capital,59962,80359,2.97,136119,,45.0,88.9,386820.0,11667.0,1.0,0.1,9.0,9.0,0.0,0.0,0,0,,0,6,1,1,1,1,0,0,2,0,SAA|ALLIANCE|AXA|CAAR|CIAR,0,0,9.0,3.0,290115000.0,57.49999999999999,58.87,35.8725963,7.0830052,أم البواقي,04001,39,1
Adrar,Adrar,Province Capital,43903,64781,3.97,130486,145696.0,44.9,94.5,280951.0,591312.0,0.0,0.0,24.0,18.0,6.0,0.0,0,0,,0,5,1,1,0,1,1,0,1,0,SAA|ALLIANCE|CAAR|CAAT|CIAR,0,0,8.0,3.0,210713250.00000003,57.49999999999999,58.71,27.9763317,-0.4841573,أدرار,01001,40,1
Hammedi,Boumerdès,Commune,27972,40546,3.78,79096,7122.0,45.7,96.4,36147.0,76249.0,4.0,0.25,119.0,67.0,40.0,12.0,0,0,,0,1,0,1,0,0,0,0,0,0,ALLIANCE,0,0,5.0,4.0,27110250.000000004,63.546332583507535,58.51,36.6144,3.2684,حمادى,35036,41,2
Barika,Batna,Commune,85670,104388,2.0,148981,2378.0,43.1,93.5,64211.0,139297.0,1.0,0.1,243.0,242.0,1.0,0.0,0,0,,0,6,1,0,1,2,1,0,1,0,SAA|AXA|CAAR|CAAT|CIAR,0,0,9.0,3.0,48158250.0,57.49999999999999,58.09,35.3698534,5.1424493,بريكة,05042,42,1
El Milia,Jijel,Commune,69163,78087,1.22,97151,78087.0,43.0,93.8,41775.0,91128.0,2.0,0.15,5.0,5.0,0.0,0.0,0,0,,0,2,0,0,0,1,0,0,1,0,CAAR|CIAR,0,0,6.0,4.0,31331250.0,65.6554636256405,57.76,36.7469209,6.2451046,الميلية,18009,43,1
Koléa,Tipaza,Commune,46158,54401,1.66,73123,10285.0,44.7,92.9,32686.0,67931.0,4.0,0.25,124.0,101.0,23.0,0.0,1,1,ZI Koléa,0,3,0,0,1,1,0,0,1,0,AXA|CAAR|CIAR,0,0,4.0,1.0,24514500.000000004,54.74929943908283,57.51,36.5769,2.7658,القليعة,42035,44,1
Taher,Jijel,Commune,67095,77367,1.43,99980,77367.0,43.7,95.7,43691.0,95681.0,2.0,0.15,2427.0,2426.0,1.0,0.0,0,0,,0,1,0,0,0,0,0,0,1,0,CIAR,0,0,6.0,5.0,32768250.000000004,66.37349757672912,56.75,36.7775912,5.8348749,الطاهير,18005,45,2
Aïn Arnat,Sétif,Commune,30129,43551,3.75,84532,13439.0,43.4,89.8,36687.0,75910.0,2.0,0.15,47.0,41.0,6.0,0.0,0,0,,0,2,0,1,0,0,0,0,1,0,ALLIANCE|CIAR,0,0,5.0,3.0,27515250.000000004,51.24870123360557,56.61,36.1756548,5.173013,عين أرنـات,19026,46,1
Aïn Merane,Chlef,Commune,37142,51326,3.29,91873,51326.0,37.5,90.6,34452.0,83237.0,4.0,0.25,9.0,4.0,5.0,0.0,0,0,,0,2,1,1,0,0,0,0,0,0,SAA|ALLIANCE,0,0,6.0,4.0,25839000.000000004,62.91111987625533,56.15,36.1625642,0.9651016,عين مران,02032,47,3
Tadjenanet,Mila,Commune,43151,53536,2.18,78927,53536.0,43.8,90.5,34570.0,71429.0,4.0,0.25,246.0,145.0,96.0,5.0,0,0,,0,1,1,0,0,0,0,0,0,0,SAA,0,0,5.0,4.0,25927500.0,62.95534117386935,56.02,36.0524,6.0013,تاجنانت,43008,48,1
Aïn Témouchent,Aïn Témouchent,Province Capital,57673,72940,2.38,111315,130094.0,46.8,91.5,217921.0,426063.0,2.0,0.15,12.0,12.0,0.0,0.0,0,0,,0,5,1,2,1,1,0,0,0,0,SAA|ALLIANCE|AXA|CAAR,0,0,7.0,2.0,163440750.00000003,45.0,55.99,35.2254,-1.1398,عـيـن تـمـوشـنـت,46001,49,1
Oued Smar,El Djazaïr [Algiers],Commune,21397,32062,4.13,66395,93289.0,47.8,93.3,31737.0,61947.0,4.0,0.25,144.0,75.0,61.0,8.0,1,1,ZI Oued Smar,0,3,2,1,0,0,0,0,0,0,SAA|ALLIANCE,0,0,4.0,1.0,23802750.000000004,54.39365527437349,55.53,36.7098628,3.1596368,وادي سمار,16015,50,5
Hamadi Krouma,Skikda,Commune,18805,30404,4.92,72196,30404.0,45.3,95.8,32705.0,69164.0,1.0,0.1,42.0,7.0,31.0,4.0,0,0,,0,0,0,0,0,0,0,0,0,0,,0,0,4.0,4.0,24528750.0,62.25641981751221,54.23,36.8471689,6.9208716,حمادي كرومة,21037,51,2
Larbaâ,Tissemsilt,Commune,2823,2560,-0.97,2147,34860.0,43.7,94.1,65904.0,141913.0,4.0,0.25,77.0,43.0,28.0,6.0,0,0,,0,0,0,0,0,0,0,0,0,0,,0,0,0.0,0.0,49428000.00000001,20.0,51.59,36.5787079,3.103324,الاربعاء,05061,52,1
Larbaâ,Blida,Commune,60482,83819,3.32,150811,34860.0,43.7,94.1,65904.0,141913.0,4.0,0.25,77.0,43.0,28.0,6.0,0,0,,0,0,0,0,0,0,0,0,0,0,,0,0,10.0,10.0,49428000.00000001,70.0,51.59,36.5787079,3.103324,الاربعاء,05061,52,5
Reguiba,El Oued,Commune,30392,40367,2.88,67283,12235.0,41.5,83.4,27922.0,56114.0,0.0,0.0,10.0,2.0,8.0,0.0,0,0,,0,0,0,0,0,0,0,0,0,0,,0,0,4.0,4.0,20941500.000000004,60.46395823710674,51.57,33.499,6.7126,الرڨيبة,39008,54,2
Guemar,El Oued,Commune,29185,39168,2.99,66515,7074.0,43.1,82.5,28668.0,54875.0,0.0,0.0,1.0,1.0,0.0,0.0,0,0,,0,0,0,0,0,0,0,0,0,0,,0,0,4.0,4.0,21501000.0,60.743526779649606,51.57,33.428,6.7978,ڨمار,39006,54,2
El Hadjar,Annaba,Commune,33878,37364,0.98,44567,9964.0,45.0,95.6,20055.0,42606.0,2.0,0.15,56.0,36.0,19.0,1.0,1,1,Complexe sidérurgique,0,2,0,1,0,0,0,0,1,0,ALLIANCE|CIAR,0,0,2.0,0.0,15041250.0,37.51574681058576,51.51,36.7742133,7.6264832,الحجار,23003,56,2
Frenda,Tiaret,Commune,47502,54162,1.32,68590,16077.0,41.9,89.5,28739.0,61388.0,1.0,0.1,7.0,4.0,3.0,0.0,0,0,,0,0,0,0,0,0,0,0,0,0,,0,0,4.0,4.0,21554250.0,60.77013450956989,51.08,35.0625636,1.0403751,فرندة,14027,57,3
Boudouaou,Boumerdès,Commune,54401,71238,2.73,115745,26408.0,45.9,92.4,53127.0,106948.0,4.0,0.25,212.0,169.0,39.0,4.0,0,0,,0,4,0,2,1,0,0,0,1,0,ALLIANCE|AXA|CIAR,0,0,7.0,3.0,39845250.00000001,57.40970235881275,50.09,36.6695,3.4058,بودواو,35002,58,3
Aïn El Melh,M'Sila,Commune,23272,37045,4.76,85535,8777.0,40.0,86.4,34214.0,73902.0,4.0,0.25,2.0,2.0,0.0,0.0,0,0,,0,0,0,0,0,0,0,0,0,0,,0,0,5.0,5.0,25660500.0,62.82192776750841,48.59,34.7887663,4.0208139,عين الملح,28041,59,3
Makman Ben Amer,Naâma,Commune,3658,5613,4.37,12131,,43.9,89.35,28664.0,40505.0,1.5,0.125,,,,,0,0,,0,0,0,0,0,0,0,0,0,0,,0,0,0.0,0.0,21498000.0,10.742027752611834,48.03,33.6512,-0.7278,مكمن بن عمر,45010,60,5
Djeniene Bourezg,Naâma,Commune,2301,3090,2.99,5253,,43.9,89.35,28664.0,40505.0,1.5,0.125,,,,,0,0,,0,0,0,0,0,0,0,0,0,0,,0,0,0.0,0.0,21498000.0,10.742027752611834,48.03,,,,,60,5
Aïn Ben Khelil,Naâma,Commune,3776,10554,10.83,67129,4091.0,42.7,82.7,28664.0,55516.0,1.5,0.125,,,,,0,0,,0,0,0,0,0,0,0,0,0,0,,0,0,4.0,4.0,21498000.0,60.74202775261184,48.03,33.2226,-0.7635,عين بن خليل,45009,60,5
Beni Messous,El Djazaïr [Algiers],Commune,17490,36191,7.54,133986,52816.0,47.7,92.8,63911.0,124339.0,2.0,0.15,91.0,67.0,21.0,3.0,0,0,,0,6,3,0,1,1,0,0,1,0,SAA|AXA|CAAR|CIAR,0,0,8.0,2.0,47933250.0,45.0,48.02,36.7844574,2.9591524,بني مسوس,16032,63,6
Aïn Smara,Constantine,Commune,24426,36998,4.24,78120,8173.0,46.9,95.8,36638.0,74839.0,2.0,0.15,140.0,107.0,33.0,0.0,0,0,,0,3,2,0,0,0,0,0,1,0,SAA|CIAR,0,0,5.0,2.0,27478500.0,38.73033815239298,45.81,36.2946549,6.4221713,عين سمارة,25010,64,1
Sour El Ghozlane,Bouira,Commune,42179,50120,1.74,68369,3672.0,45.3,90.9,30971.0,62147.0,2.0,0.15,54.0,51.0,3.0,0.0,0,0,,0,0,0,0,0,0,0,0,0,0,,0,0,4.0,4.0,23228250.000000004,61.60659159664181,45.47,36.1694764,3.55647,سور الغزلان,10038,65,1
Ouled Khaled,Saïda,Commune,19368,30484,4.64,68968,7129.0,44.5,91.8,30691.0,63313.0,2.0,0.15,,,,,0,0,,0,0,0,0,0,0,0,0,0,0,,0,0,4.0,4.0,23018250.000000004,61.50165970399839,45.47,34.841945,0.1483583,أولاد خالد,20004,65,1
Mouzaia,Blida,Commune,44893,52555,1.59,69791,71446.0,42.9,94.3,29940.0,65813.0,4.0,0.25,24.0,14.0,5.0,5.0,0,0,,0,0,0,0,0,0,0,0,0,0,,0,0,4.0,4.0,22455000.0,61.22021737765833,45.45,36.50497,2.6139932,موزاية,09016,67,6
Mohamed Belouizdad (Hamma Annassers),El Djazaïr [Algiers],Commune,59248,44050,-2.92,25837,,48.0,93.35,29822.5,57347.0,4.0,0.25,,,,,0,0,,0,0,0,0,0,0,0,0,0,0,,0,0,1.0,1.0,22366875.0,23.67618345842403,45.45,,,,,67,7
Metlili,Ghardaïa,Commune,33759,40576,1.86,56501,11347.0,41.8,87.5,23617.0,49438.0,0.0,0.0,7.0,7.0,0.0,0.0,0,0,,0,0,0,0,0,0,0,0,0,0,,0,0,3.0,3.0,17712750.000000004,46.350630387713984,45.45,32.2058,3.6282,متليلي الشعانبة,47005,67,2
Harraoua,El Djazaïr [Algiers],Commune,18167,27565,4.26,58384,,48.0,93.35,29822.5,57347.0,4.0,0.25,,,,,0,0,,0,0,0,0,0,0,0,0,0,0,,0,0,3.0,3.0,22366875.0,48.67618345842403,45.45,,,,,67,7
Tebesbest,Ouargla,Commune,29840,35032,1.62,46759,20174.0,48.1,88.7,22491.0,41475.0,0.0,0.0,4.0,4.0,0.0,0.0,0,0,,0,0,0,0,0,0,0,0,0,0,,0,0,3.0,3.0,16868250.0,45.928654276583615,45.31,33.0536,6.0809,تبسبست,30007,71,3
Sidi Okba,Biskra,Commune,26139,33509,2.51,52400,11415.0,43.7,94.6,22899.0,49570.0,1.0,0.1,3.0,2.0,1.0,0.0,0,0,,0,0,0,0,0,0,0,0,0,0,,0,0,3.0,3.0,17174250.0,46.08155503443548,44.97,34.776526,5.8344242,سيدي عقبة,07011,72,2
Aïn Errich,M'Sila,Commune,10548,20634,6.94,69044,29046.0,34.0,91.7,23475.0,63313.0,1.0,0.1,,,,,0,0,,0,0,0,0,0,0,0,0,0,0,,0,0,4.0,4.0,17606250.0,58.79741492787338,44.97,34.4919894,3.8159469,عين الريش,28044,72,4
Had-Sahary,Djelfa,Commune,22277,30451,3.18,53449,23051.0,43.0,12.4,22983.0,6628.0,1.0,0.1,1.0,1.0,0.0,0.0,0,0,,0,0,0,0,0,0,0,0,0,0,,0,0,3.0,3.0,17237250.0,46.1130346022285,44.97,35.3538344,3.3463044,حد الصحاري,17020,72,4
Oum Laadham,Djelfa,Commune,13696,23051,5.34,58839,12972.0,46.7,67.2,27478.0,39540.0,1.0,0.1,,,,,0,0,,0,0,0,0,0,0,0,0,0,0,,0,0,3.0,3.0,20608500.0,47.79756623591501,44.3,33.7195744,4.5251226,ام العظام,17024,75,5
Aïn Khadra,M'Sila,Commune,19412,29046,4.11,59995,1904.0,41.8,87.6,25078.0,52556.0,1.0,0.1,10.0,1.0,9.0,0.0,0,0,,0,0,0,0,0,0,0,0,0,0,,0,0,3.0,3.0,18808500.0,46.89815001325704,44.3,35.5456141,4.8777554,عين الخضراء,28013,75,5
Sidi Khaled,Sidi Bel Abbès,Commune,6227,7167,1.42,9231,16013.0,43.9,93.4,27515.0,58539.0,1.0,0.1,,,,,0,0,,0,0,0,0,0,0,0,0,0,0,,0,0,0.0,0.0,20636250.0,10.311432236014324,44.3,34.3845588,4.8400248,سيدي خالد,07008,75,1
Sidi Khaled,Biskra,Commune,35277,43315,2.07,62676,16013.0,43.9,93.4,27515.0,58539.0,1.0,0.1,,,,,0,0,,0,0,0,0,0,0,0,0,0,0,,0,0,4.0,4.0,20636250.0,60.311432236014326,44.3,34.3845588,4.8400248,سيدي خالد,07008,75,3
Tighennif,Mascara,Commune,55800,62210,1.09,75660,21278.0,42.8,89.8,32382.0,67943.0,2.0,0.15,15.0,11.0,0.0,4.0,0,0,,0,1,0,1,0,0,0,0,0,0,ALLIANCE,0,0,5.0,4.0,24286500.000000004,62.13537338421282,44.2,,,,,79,2
Fouka,Tipaza,Commune,39549,48959,2.16,71893,27059.0,46.9,92.0,33718.0,66142.0,4.0,0.25,69.0,53.0,16.0,0.0,0,0,,0,1,0,0,0,0,0,0,1,0,CIAR,0,0,4.0,3.0,25288500.0,50.13604841482577,44.18,36.6034,2.7493,فوكة,42025,80,2
Ksar El Hirane,Laghouat,Commune,14910,23841,4.81,55494,11204.0,37.9,82.2,21032.0,45616.0,1.0,0.1,22.0,22.0,0.0,0.0,0,0,,0,0,0,0,0,0,0,0,0,0,,0,0,3.0,3.0,15774000.000000002,45.38188416455945,43.93,33.7855481,3.119366,قصر الحيران,03002,81,2
Arzew,Oran,Commune,66720,70951,0.62,79254,11263.0,46.9,85.3,37170.0,67604.0,2.0,0.15,58.0,53.0,5.0,0.0,1,1,Pôle industriel Arzew,0,14,12,1,0,1,0,0,0,0,SAA|ALLIANCE|CAAR,0,0,5.0,0.0,27877500.0,43.9297087484155,43.89,35.8044,-0.3214,أرزيو,31006,82,3
Sidi Amar,Saïda,Commune,7715,8991,1.54,11843,41684.0,38.8,92.8,41037.0,98150.0,4.0,0.25,30.0,23.0,7.0,0.0,0,0,,0,1,0,0,0,0,0,0,1,0,CIAR,0,0,0.0,0.0,30777750.0,15.378893137173172,43.27,35.0264293,0.1049602,يدي عمر,20008,83,2
Sidi Amar,Annaba,Commune,72889,83254,1.34,105765,41684.0,38.8,92.8,41037.0,98150.0,4.0,0.25,30.0,23.0,7.0,0.0,0,0,,0,1,0,0,0,0,0,0,1,0,CIAR,0,0,7.0,6.0,30777750.0,65.37889313717318,43.27,35.0264293,0.1049602,يدي عمر,20008,83,3
Sidi Amar,Tipaza,Commune,10906,13332,2.03,19139,41684.0,38.8,92.8,41037.0,98150.0,4.0,0.25,30.0,23.0,7.0,0.0,0,0,,0,1,0,0,0,0,0,0,1,0,CIAR,0,0,1.0,0.0,30777750.0,15.378893137173172,43.27,35.0264293,0.1049602,يدي عمر,20008,83,3
Bounoura,Ghardaïa,Commune,27775,35405,2.46,54803,16437.0,38.2,52.8,20935.0,28936.0,1.0,0.1,,,,,0,0,,0,0,0,0,0,0,0,0,0,0,,0,0,3.0,3.0,15701250.0,45.34553275889369,43.04,32.4194,3.7079,بونورة,47010,86,3
Hammam Dhalaa,M'Sila,Commune,34785,39850,1.37,50897,7950.0,41.0,86.6,20868.0,44077.0,1.0,0.1,73.0,24.0,48.0,1.0,0,0,,0,0,0,0,0,0,0,0,0,0,,0,0,3.0,3.0,15651000.000000002,45.32042405601116,43.04,35.9303231,4.2004576,حمـام الضلعة,28003,86,6
Aïn Sidi Ali,Laghouat,Commune,4220,10486,9.53,53969,6079.0,36.3,87.9,19591.0,47439.0,1.0,0.1,,,,,0,0,,0,0,0,0,0,0,0,0,0,0,,0,0,3.0,3.0,14693250.000000002,44.84185967420522,42.89,34.1666661,1.5412452,عين سيدي علي,03011,88,3
Kais,Khenchela,Commune,28724,34383,1.81,47525,5606.0,41.1,83.8,19533.0,39826.0,1.0,0.1,9.0,9.0,0.0,0.0,0,0,,0,0,0,0,0,0,0,0,0,0,,0,0,3.0,3.0,14649750.000000002,44.82012378215765,42.89,35.4305,6.9241,قايس,40003,88,1
Aïn Tedles,Mostaganem,Commune,31685,38823,2.05,55965,6794.0,42.5,88.8,23785.0,49697.0,4.0,0.25,6.0,3.0,3.0,0.0,0,0,,0,0,0,0,0,0,0,0,0,0,,0,0,3.0,3.0,17838750.0,46.41358952330004,42.61,,,,,90,1
Raïs Hamidou,El Djazaïr [Algiers],Commune,21518,28451,2.83,47036,151950.0,49.0,89.8,23048.0,42238.0,4.0,0.25,64.0,43.0,21.0,0.0,0,0,,0,0,0,0,0,0,0,0,0,0,,0,0,3.0,3.0,17286000.0,46.13739379159216,42.61,36.8077359,2.9921434,الرايس حميدو,16025,90,9
Oued Fodda,Chlef,Commune,36187,41710,1.43,53861,41710.0,41.4,94.1,22298.0,50683.0,4.0,0.25,19.0,15.0,4.0,0.0,0,0,,0,0,0,0,0,0,0,0,0,0,,0,0,3.0,3.0,16723500.000000002,45.85632622201153,42.46,36.1995109,1.4672731,واد الفضة,02029,92,4
Bordj Badji Mokhtar,Adrar,Commune,9323,16437,5.83,45615,69052.0,48.9,94.6,22306.0,43152.0,4.0,0.25,5.0,4.0,1.0,0.0,0,0,,0,0,0,0,0,0,0,0,0,0,,0,0,3.0,3.0,16729500.0,45.859324276087065,42.46,22.9676154,-3.946422,برج باجي مختار,01025,92,2
Babar,Khenchela,Commune,28182,34844,2.14,51052,23841.0,44.5,89.0,22718.0,45436.0,4.0,0.25,9.0,8.0,1.0,0.0,0,0,,0,0,0,0,0,0,0,0,0,0,,0,0,3.0,3.0,17038500.0,46.01372406097668,42.46,35.1053,7.0999,بابار,40013,92,2
Bordj Menaïel,Boumerdès,Commune,53782,64820,1.88,90707,18266.0,46.2,93.9,41907.0,85174.0,2.0,0.15,91.0,81.0,10.0,0.0,0,0,,0,4,2,0,1,0,0,0,1,0,SAA|AXA|CIAR,0,0,6.0,2.0,31430250.0,40.70493151788669,42.45,36.6783,3.7244,برج منايل,35005,95,4
Larbatache,Boumerdès,Commune,15791,19356,2.06,27922,6693.0,44.1,94.7,12314.0,26442.0,4.0,0.25,64.0,22.0,40.0,2.0,1,1,Nouvelle ZI ANIREF (136 ha),0,0,0,0,0,0,0,0,0,0,,0,0,1.0,1.0,9235500.0,47.114754735754325,42.42,36.5725,3.3728,الأربعطاش,35021,96,5
Echatt,El Tarf,Commune,26758,34378,2.54,53972,88801.0,46.2,94.3,24935.0,50896.0,2.0,0.15,193.0,59.0,126.0,8.0,0,0,,0,0,0,0,0,0,0,0,0,0,,0,0,3.0,3.0,18701250.0,46.844559796657,41.85,36.7664,7.8745,الشط,36018,97,1
Guerouaou,Blida,Commune,12043,17297,3.69,33189,,43.4,93.75,24123.0,49416.5,4.0,0.25,,,,,0,0,,0,0,0,0,0,0,0,0,0,0,,0,0,2.0,2.0,18092250.0,34.04025730799104,41.85,,,,,97,7
Corso,Boumerdès,Commune,13118,20705,4.67,47081,8505.0,44.7,95.3,21045.0,44868.0,4.0,0.25,74.0,58.0,16.0,0.0,0,0,,0,0,0,0,0,0,0,0,0,0,,0,0,3.0,3.0,15783750.0,45.38675600243218,41.7,36.6937,3.4332,قورصو,35019,99,6
Misserghin,Oran,Commune,18089,25443,3.47,47016,33939.0,45.9,93.3,21580.0,43866.0,2.0,0.15,20.0,18.0,1.0,1.0,0,0,,0,0,0,0,0,0,0,0,0,0,,0,0,3.0,3.0,16185000.0,45.58725086873302,41.57,,,,,100,4
Béni Saf,Aïn Témouchent,Commune,39668,42284,0.64,47435,64685.0,45.0,93.8,21346.0,44494.0,2.0,0.15,2.0,2.0,0.0,0.0,0,0,,0,0,0,0,0,0,0,0,0,0,,0,0,3.0,3.0,16009500.0,45.49955778702387,41.57,35.2366,-1.3843,بني صاف,46023,100,2
Collo,Skikda,Commune,31480,35682,1.26,44709,35682.0,48.4,96.2,21639.0,43010.0,2.0,0.15,7.0,5.0,2.0,0.0,0,0,,0,0,0,0,0,0,0,0,0,0,,0,0,2.0,2.0,16229250.0,33.10936151754003,41.57,37.0006567,6.537659,القل,21010,100,3
Oued Zenati,Guelma,Commune,27254,32870,1.89,46054,12300.0,46.4,94.1,21369.0,43337.0,2.0,0.15,4.0,4.0,0.0,0.0,0,0,,0,0,0,0,0,0,0,0,0,0,,0,0,3.0,3.0,16026750.0,45.50817719249101,41.57,36.3153995,7.1469496,وادي الزناتي,24004,100,1
Merouana,Batna,Commune,34788,38656,1.06,46734,29504.0,41.5,96.1,19395.0,44911.0,1.0,0.1,10.0,10.0,0.0,0.0,0,0,,0,0,0,0,0,0,0,0,0,0,,0,0,3.0,3.0,14546250.0,44.76840734935482,40.74,35.6417881,5.8172903,مروانة,05004,104,2
Bouarfa,Blida,Commune,30258,35910,1.73,48875,3403.0,42.4,91.1,20723.0,44525.0,4.0,0.25,50.0,48.0,2.0,0.0,0,0,,0,0,0,0,0,0,0,0,0,0,,0,0,3.0,3.0,15542250.000000002,45.26608432589224,40.66,36.4151693,2.7284692,بوعرفة,09024,105,8
Guidjel,Sétif,Commune,27891,33685,1.91,47314,12906.0,42.8,94.0,20250.0,44475.0,2.0,0.15,90.0,90.0,0.0,0.0,0,1,ZA,0,0,0,0,0,0,0,0,0,0,,0,0,3.0,3.0,15187500.0,45.088824378676726,40.63,36.0807516,5.4235957,قجــال,19017,106,2
Sayada,Mostaganem,Commune,21900,28675,2.73,46581,14530.0,42.5,91.0,19797.0,42389.0,2.0,0.15,60.0,41.0,19.0,0.0,0,0,,0,0,0,0,0,0,0,0,0,0,,0,0,3.0,3.0,14847750.0,44.919059566650034,40.53,35.9321147,0.0894758,صيادة,27002,107,2
Aoulef,Adrar,Commune,15229,21723,3.62,41169,134699.0,49.1,92.2,20214.0,37958.0,2.0,0.15,1.0,1.0,0.0,0.0,0,0,,0,0,0,0,0,0,0,0,0,0,,0,0,2.0,2.0,15160500.0,32.575333135336855,40.53,26.9710733,1.059451,أولف,01012,107,3
Djelida,Aïn Defla,Commune,30371,36076,1.74,49180,36076.0,41.1,85.1,20213.0,41852.0,2.0,0.15,43.0,13.0,29.0,1.0,0,0,,0,0,0,0,0,0,0,0,0,0,,0,0,3.0,3.0,15159750.000000002,45.07495837857741,40.53,36.1357,2.0847,جليدة,44007,107,1
Ghriss,Mascara,Commune,22151,28823,2.67,46298,4483.0,43.1,83.2,19954.0,38520.0,2.0,0.15,6.0,6.0,0.0,0.0,0,0,,0,0,0,0,0,0,0,0,0,0,,0,0,3.0,3.0,14965500.0,44.977896377882246,40.53,35.1839,0.162,غريس,29012,107,3
Aïn Fakroun,Oum El Bouaghi,Commune,47237,55282,1.59,73371,8036.0,43.5,82.6,31916.0,60604.0,1.0,0.1,,,,,0,0,,0,2,0,1,0,0,0,0,1,0,ALLIANCE|CIAR,0,0,4.0,2.0,23937000.000000004,36.9607367343134,40.43,,,,,111,2
Sedrata,Souk Ahras,Commune,47297,53218,1.19,65806,53218.0,46.4,94.0,30534.0,61858.0,2.0,0.15,2.0,2.0,0.0,0.0,0,0,,0,1,0,0,0,0,0,0,1,0,CIAR,0,0,4.0,3.0,22900500.0,48.94282289276618,39.89,36.0658,7.5311,سدراتة,41002,112,1
Ras El Oued,Bordj Bou Arreridj,Commune,42345,51482,1.97,73180,26042.0,39.7,95.1,29052.0,69594.0,2.0,0.15,53.0,31.0,22.0,0.0,0,0,,0,1,0,0,0,0,0,0,1,0,CIAR,0,0,4.0,3.0,21789000.000000004,48.38743337527488,39.89,35.8846,5.0372,رأس الوادي,34002,112,1
El Djazaïr,El Djazaïr [Algiers],Commune,96329,75541,-2.4,48770,,48.0,93.35,29822.5,57347.0,4.0,0.25,,,,,0,0,,0,1,1,0,0,0,0,0,0,0,SAA,0,0,3.0,2.0,22366875.0,36.17618345842403,39.86,,,,,114,10
Tessala El Merdja,El Djazaïr [Algiers],Commune,10792,15847,3.92,31642,,48.0,93.35,29822.5,57347.0,4.0,0.25,,,,,0,0,,0,1,0,0,0,0,0,0,1,0,CIAR,0,0,2.0,1.0,22366875.0,23.67618345842403,39.86,,,,,114,10
El Hammamet,El Djazaïr [Algiers],Commune,19651,23990,2.02,34355,,48.0,93.35,29822.5,57347.0,4.0,0.25,,,,,0,0,,0,1,1,0,0,0,0,0,0,0,SAA,0,0,2.0,1.0,22366875.0,23.67618345842403,39.86,36.8024015,2.9559659,الحمامات,16024,114,10
Hammam Bou Hadjar,Aïn Témouchent,Commune,29633,33939,1.37,43327,9599.0,44.7,90.2,19367.0,39081.0,2.0,0.15,10.0,3.0,0.0,7.0,0,0,,0,0,0,0,0,0,0,0,0,0,,0,0,2.0,2.0,14525250.0,32.25791416009047,38.59,,,,,117,3
Draâ El Mizan,Tizi Ouzou,Commune,37628,38886,0.33,41257,12791.0,46.8,90.8,19308.0,37461.0,2.0,0.15,82.0,78.0,4.0,0.0,0,0,,0,0,0,0,0,0,0,0,0,0,,0,0,2.0,2.0,14481000.000000002,32.235803511283464,38.59,36.5470073,3.7377549,ذراع الميزان,15010,117,1
El Kala,El Tarf,Commune,24793,28411,1.37,36305,23135.0,53.5,92.5,19423.0,33582.0,2.0,0.15,9.0,4.0,5.0,0.0,0,0,,0,0,0,0,0,0,0,0,0,0,,0,0,2.0,2.0,14567250.000000002,32.27890053861916,38.59,36.8324,8.443,القالة,36005,117,2
Illizi,Illizi,Province Capital,10163,17252,5.43,44721,,41.8,93.7,47272.0,12312.0,0.0,0.0,7.0,6.0,1.0,0.0,0,0,,0,3,1,0,0,0,1,0,1,0,SAA|CAAT|CIAR,0,0,2.0,0.0,35454000.0,17.715501532286723,38.33,26.4361,8.4842,إلـيـزي,33001,120,1
Remchi,Tlemcen,Commune,39525,46999,1.75,64192,46999.0,46.4,93.9,29785.0,60276.0,1.0,0.1,1.0,1.0,0.0,0.0,0,0,,0,2,1,1,0,0,0,0,0,0,SAA|ALLIANCE,0,0,4.0,2.0,22338750.0,36.162130079945,38.25,35.0550485,-1.4635847,الرمشي,13004,121,2
Saoula,El Djazaïr [Algiers],Commune,31388,41690,2.88,69489,20705.0,46.7,96.3,32451.0,66918.0,4.0,0.25,204.0,130.0,71.0,3.0,0,0,,0,2,0,0,0,0,0,0,2,0,CIAR,0,0,4.0,2.0,24338250.000000004,37.16123160061424,37.92,36.6866758,3.0056614,السحاولة,16057,122,13
Aïn El Hadjel,M'Sila,Commune,27661,33046,1.79,45517,10716.0,42.2,92.1,19208.0,41921.0,1.0,0.1,151.0,75.0,76.0,0.0,0,0,,0,0,0,0,0,0,0,0,0,0,,0,0,3.0,3.0,14406000.000000002,44.69832783533938,37.5,35.6184864,3.6830434,عين الحجل,28017,123,7
Sobha,Chlef,Commune,28646,34455,1.86,48039,34455.0,39.0,90.2,18735.0,43331.0,4.0,0.25,26.0,2.0,24.0,0.0,0,0,,0,0,0,0,0,0,0,0,0,0,,0,0,3.0,3.0,14051250.0,44.52106788812387,35.88,36.1084781,1.1017012,صبحة,02008,124,5
Ouled Fares,Chlef,Commune,30068,34891,1.5,45605,34891.0,40.8,92.2,18607.0,42048.0,4.0,0.25,9.0,4.0,5.0,0.0,0,0,,0,0,0,0,0,0,0,0,0,0,,0,0,3.0,3.0,13955250.0,44.47309902291545,35.88,36.2302131,1.0951463,أولاد فارس,02010,124,5
Djasr Kasentina,El Djazaïr [Algiers],Commune,82729,133247,4.88,314237,,48.0,93.35,29822.5,57347.0,4.0,0.25,,,,,0,0,,0,2,2,0,0,0,0,0,0,0,SAA,0,0,20.0,18.0,22366875.0,61.17618345842403,35.83,36.6927735,3.0610977,جسر قسنطينة,16026,126,14
Assela,Naâma,Commune,4784,6592,3.26,11739,,43.9,89.35,28664.0,40505.0,1.5,0.125,,,,,0,0,,0,1,1,0,0,0,0,0,0,0,SAA,0,0,0.0,0.0,21498000.0,10.742027752611834,35.67,32.9372,-0.0769,عسلة,45007,127,8
Aïn Lahdjar,Sétif,Commune,29871,34338,1.4,44129,16075.0,41.4,90.3,18269.0,39848.0,2.0,0.15,34.0,28.0,6.0,0.0,0,0,,0,0,0,0,0,0,0,0,0,0,,0,0,2.0,2.0,13701750.0,31.846431238224447,35.34,35.960213,5.4198543,عين لحجـر,19018,128,3
Bousfer,Oran,Commune,11136,17243,4.47,37879,11856.0,49.4,89.8,18712.0,34015.0,2.0,0.15,13.0,11.0,2.0,0.0,0,0,,0,0,0,0,0,0,0,0,0,0,,0,0,2.0,2.0,14034000.0,32.01244848265674,35.34,35.6461,-0.8102,بوسفر,31016,128,5
Beidha Bordj,Sétif,Commune,31250,35276,1.22,43874,9311.0,41.3,90.8,18120.0,39838.0,2.0,0.15,9.0,9.0,0.0,0.0,0,0,,0,0,0,0,0,0,0,0,0,0,,0,0,2.0,2.0,13590000.0,31.790592481067765,35.34,35.8379281,5.5996773,بيضاء برج,19029,128,3
El Idrissia,Djelfa,Commune,21279,32900,4.45,72084,9926.0,37.6,48.0,27104.0,34600.0,1.0,0.1,1.0,1.0,0.0,0.0,0,0,,0,1,1,0,0,0,0,0,0,0,SAA,0,0,4.0,3.0,20328000.0,47.65740720788415,35.24,34.4515826,2.5095583,الإدريسية,17014,131,6
El Mahmal,Khenchela,Commune,30484,38706,2.42,59491,7193.0,37.2,92.3,22131.0,54910.0,1.0,0.1,8.0,8.0,0.0,0.0,0,0,,0,1,0,0,0,0,0,0,1,0,CIAR,0,0,3.0,2.0,16598250.0,33.29374184318492,35.18,35.3095,7.2125,المحمل,40017,132,3
Magra,M'Sila,Commune,31749,39250,2.14,57496,72062.0,39.2,91.1,22538.0,52379.0,1.0,0.1,16.0,15.0,1.0,0.0,0,0,,0,1,0,0,0,0,0,0,1,0,CIAR,0,0,3.0,2.0,16903500.0,33.44626784427733,35.18,35.6076161,4.9762812,مقرة,28011,132,8
Saïda,Saïda,Province Capital,115166,128413,1.09,156215,,41.9,89.8,187436.0,14339.5,1.0,0.1,35.0,29.0,6.0,0.0,0,0,,0,9,1,1,1,1,4,0,1,0,SAA|ALLIANCE|AXA|CAAR|CAAT|CIAR,0,0,10.0,1.0,140577000.00000003,32.5,34.91,34.84194,0.1133388,سعيدة,20001,134,3
Aïn El Turk,Oran,Commune,26251,37010,3.49,68680,,45.9,90.55,16530.0,31606.5,2.0,0.15,,,,,0,0,,0,0,0,0,0,0,0,0,0,0,,0,0,4.0,4.0,12397500.0,56.19472923355685,34.22,,,,,135,6
Filfila,Skikda,Commune,25149,28996,1.43,37464,28996.0,44.3,96.3,16597.0,36078.0,2.0,0.15,28.0,13.0,14.0,1.0,0,0,,0,0,0,0,0,0,0,0,0,0,,0,0,2.0,2.0,12447750.0,31.219837936439387,34.22,36.8880361,7.0082877,فلفلة,21030,135,4
Medjana,Bordj Bou Arreridj,Commune,16112,22402,3.35,40545,26037.0,40.8,93.3,16542.0,37828.0,2.0,0.15,86.0,60.0,23.0,3.0,0,0,,0,0,0,0,0,0,0,0,0,0,,0,0,2.0,2.0,12406500.0,31.199226314670145,34.22,36.0669,4.6692,مجانة,34013,135,2
El Kerma,Oran,Commune,13637,23163,5.44,60108,,45.9,90.55,16530.0,31606.5,2.0,0.15,,,,,0,0,,0,0,0,0,0,0,0,0,0,0,,0,0,4.0,4.0,12397500.0,56.19472923355685,34.22,,,,,135,6
In Salah,Tamanrasset,Commune,28022,32518,1.5,42506,8498.0,42.0,89.2,17853.0,37915.0,0.0,0.0,5.0,5.0,0.0,0.0,0,0,,0,0,0,0,0,0,0,0,0,0,,0,0,2.0,2.0,13389750.000000002,31.690532426297064,34.17,27.1955358,2.4666218,عين صالح,11008,139,1
Sidi Ali,Mostaganem,Commune,31840,37230,1.58,49334,10446.0,44.3,85.9,21855.0,42378.0,2.0,0.15,15.0,11.0,4.0,0.0,0,0,,0,1,0,0,0,0,0,0,1,0,CIAR,0,0,3.0,2.0,16391250.0,33.19030897757925,33.92,36.0968612,0.3972458,سيدي علي,27012,140,3
Soumaa,Blida,Commune,31451,37461,1.76,51319,29291.0,42.7,92.7,21913.0,47573.0,4.0,0.25,262.0,190.0,38.0,34.0,0,0,,0,1,0,0,0,0,0,0,1,0,CIAR,0,0,3.0,2.0,16434750.000000002,33.212044869626816,33.92,36.507015,2.8509281,صومعة,09014,140,9
Aïn Taya,El Djazaïr [Algiers],Commune,29515,34501,1.57,45693,20611.0,49.4,94.6,22572.0,43226.0,4.0,0.25,71.0,63.0,8.0,0.0,0,0,,0,1,0,0,0,0,0,0,1,0,CIAR,0,0,3.0,2.0,16929000.000000004,33.45900957409832,33.92,36.7880614,3.2742797,عين طاية,16038,140,15
Sidi Khettab,Relizane,Commune,12594,14074,1.12,17190,10173.0,43.1,87.8,7409.0,15093.0,2.0,0.15,3.0,0.0,0.0,3.0,1,1,ZI Mega pole Sidi Khettab,0,0,0,0,0,0,0,0,0,0,,0,0,1.0,1.0,5556750.000000001,45.27657283069708,33.85,35.8479,0.5109,سيدي خطاب,48010,143,2
Aïn El Ibel,Djelfa,Commune,20436,28406,3.35,51385,7744.0,38.9,56.2,19989.0,28878.0,1.0,0.1,,,,,0,0,,0,1,0,0,0,1,0,0,0,0,CAAR,0,0,3.0,2.0,14991750.0,32.49101286446267,33.83,34.3539985,3.2157325,عين الابل,17030,144,7
Sebdou,Tlemcen,Commune,35836,39800,1.05,48073,39800.0,42.4,94.0,20383.0,45189.0,1.0,0.1,,,,,0,0,,0,1,0,1,0,0,0,0,0,0,ALLIANCE,0,0,3.0,2.0,15287250.000000002,32.63866702768235,33.83,34.6392357,-1.3469271,سبدو,13035,144,3
Sidi Lahcene,Sidi Bel Abbès,Commune,15016,20999,3.41,38402,2373.0,45.5,88.6,17473.0,34024.0,1.0,0.1,3.0,3.0,0.0,0.0,0,0,,0,0,0,0,0,0,0,0,0,0,,0,0,2.0,2.0,13104750.000000002,31.548124857709556,33.81,35.1925854,-0.8112957,سيدي لحسن,22014,146,2
Rahouia,Tiaret,Commune,19644,24983,2.43,38512,3062.0,44.4,83.2,17099.0,32042.0,1.0,0.1,12.0,8.0,4.0,0.0,0,0,,0,0,0,0,0,0,0,0,0,0,,0,0,2.0,2.0,12824250.0,31.40796582967868,33.81,35.5308956,1.0130642,رحوية,14014,146,4
Doucen,Biskra,Commune,21212,26455,2.23,39371,21541.0,43.3,90.0,17048.0,35434.0,1.0,0.1,,,,,0,0,,0,0,0,0,0,0,0,0,0,0,,0,0,2.0,2.0,12786000.000000002,31.3888532349472,33.81,34.6197821,4.9863232,الدوسن,07009,146,4
Benhar,Djelfa,Commune,10380,17207,5.18,42738,10359.0,42.3,73.5,18078.0,31412.0,1.0,0.1,2.0,0.0,0.0,2.0,0,0,,0,0,0,0,0,0,0,0,0,0,,0,0,2.0,2.0,13558500.000000002,31.77485269717125,33.81,35.4848362,3.0055036,بنهار,17032,146,8
Dhayet Bendhahoua,Ghardaïa,Commune,9199,12643,3.23,22410,,40.1,94.6,16659.0,25684.0,1.0,0.1,,,,,0,0,,0,0,0,0,0,0,0,0,0,0,,0,0,1.0,1.0,12494250.0,18.74307285552472,33.81,32.4704,3.6063,ضاية بن ضحوة,47003,146,4
Tazoult,Batna,Commune,22114,27493,2.2,40684,11513.0,43.2,93.9,17575.0,38202.0,1.0,0.1,25.0,25.0,0.0,0.0,0,0,,0,0,0,0,0,0,0,0,0,0,,0,0,2.0,2.0,13181250.0,31.58635004717252,33.81,35.470362,6.1694644,تازولت,05008,146,3
Hassi Gara,Ghardaïa,Commune,13911,17801,2.5,27746,,40.1,94.6,16659.0,25684.0,1.0,0.1,,,,,0,0,,0,0,0,0,0,0,0,0,0,0,,0,0,1.0,1.0,12494250.0,18.74307285552472,33.81,30.4842,2.9141,حاسي قارة,47012,146,4
El Menia (El Goléa),Ghardaïa,Commune,28848,40195,3.37,73025,,40.1,94.6,16659.0,25684.0,1.0,0.1,,,,,0,0,,0,0,0,0,0,0,0,0,0,0,,0,0,4.0,4.0,12494250.0,56.24307285552472,33.81,,,,,146,4
Mahdia,Tiaret,Commune,30264,33082,0.89,38832,6658.0,44.2,90.1,17164.0,34988.0,1.0,0.1,10.0,7.0,3.0,0.0,0,0,,0,0,0,0,0,0,0,0,0,0,,0,0,2.0,2.0,12873000.0,31.43232501904233,33.81,35.4312648,1.7415474,المھدية,14015,146,4
Hassi Fehal,Ghardaïa,Commune,2164,3651,5.37,9360,,40.1,94.6,16659.0,25684.0,1.0,0.1,,,,,0,0,,0,0,0,0,0,0,0,0,0,0,,0,0,0.0,0.0,12494250.0,6.243072855524718,33.81,31.5364,3.6749,حاسي الفحل,47011,146,4
Chiffa,Blida,Commune,26703,34268,2.53,53688,260.0,44.5,94.9,23891.0,50950.0,4.0,0.25,18.0,17.0,1.0,0.0,0,0,,0,1,0,0,0,0,1,0,0,0,CAAT,0,0,3.0,2.0,17918250.0,33.95331373980077,33.54,36.444398,2.6691173,الشفة,09011,156,10
Miliana,Aïn Defla,Commune,39662,44201,1.09,53720,44201.0,44.4,93.2,23852.0,50067.0,2.0,0.15,8.0,4.0,2.0,2.0,0,0,,0,1,0,0,0,0,0,0,1,0,CIAR,0,0,3.0,2.0,17889000.000000004,33.93869822618258,33.54,36.2266,2.211,مليانة,44002,156,2
Chebli,Blida,Commune,21506,29660,3.27,52902,12529.0,45.6,94.2,24123.0,49834.0,4.0,0.25,63.0,35.0,28.0,0.0,0,0,,0,1,1,0,0,0,0,0,0,0,SAA,0,0,3.0,2.0,18092250.0,34.04025730799104,33.54,36.5685763,2.9433463,الشبلي,09002,156,10
Messaoud Boudjriou,Constantine,Commune,7975,9050,1.27,11363,,45.9,94.35,34390.0,58031.0,2.0,0.15,,,,,0,0,,0,0,0,0,0,0,0,0,0,0,,0,0,0.0,0.0,25792500.0,12.887884957170002,33.06,,,,,159,2
Beni Hamiden,Constantine,Commune,8197,9397,1.38,12017,,45.9,94.35,34390.0,58031.0,2.0,0.15,,,,,0,0,,0,0,0,0,0,0,0,0,0,0,,0,0,0.0,0.0,25792500.0,12.887884957170002,33.06,36.5203461,6.4731762,بني حميدان,25008,159,2
Ouled Rahmoune,Constantine,Commune,20434,26132,2.49,40686,,45.9,94.35,34390.0,58031.0,2.0,0.15,,,,,0,0,,0,0,0,0,0,0,0,0,0,0,,0,0,2.0,2.0,25792500.0,37.88788495717,33.06,36.1816075,6.5482917,أولاد رحمون,25009,159,2
Benkhelil,Blida,Commune,22361,29404,2.78,48134,34268.0,43.4,93.3,20890.0,44909.0,4.0,0.25,32.0,14.0,16.0,2.0,0,0,,0,1,1,0,0,0,0,0,0,0,SAA,0,0,3.0,2.0,15667500.0,32.82866870471886,32.58,,,,,162,12
Kherrata,Béjaïa,Commune,31743,35077,1.0,41985,8766.0,40.1,93.4,16836.0,39214.0,2.0,0.15,8.0,5.0,3.0,0.0,0,0,,0,0,0,0,0,0,0,0,0,0,,0,0,2.0,2.0,12627000.000000002,31.309404801945742,32.35,36.4719307,5.2047107,خراطة,06044,163,1
Berhoum,M'Sila,Commune,17838,23620,2.85,39153,33046.0,43.8,89.5,17149.0,35042.0,2.0,0.15,24.0,8.0,16.0,0.0,0,0,,0,0,0,0,0,0,0,0,0,0,,0,0,2.0,2.0,12861750.0,31.426703667650724,32.35,35.6351693,4.9263356,برهوم,28012,163,9
Salah Bey,Sétif,Commune,21855,27175,2.2,40224,7578.0,41.8,89.0,16814.0,35799.0,2.0,0.15,1.0,1.0,0.0,0.0,0,0,,0,0,0,0,0,0,0,0,0,0,,0,0,2.0,2.0,12610500.0,31.301160153238044,32.35,35.8237361,5.2648518,صـالح باي,19039,163,5
El Hadaiek,Skikda,Commune,12288,18002,3.89,35796,18002.0,47.6,95.2,17039.0,34078.0,2.0,0.15,18.0,11.0,7.0,0.0,0,0,,0,0,0,0,0,0,0,0,0,0,,0,0,2.0,2.0,12779250.0,31.385480424112234,32.35,,,,,163,5
Kheireddine,Mostaganem,Commune,22241,27606,2.18,40732,17330.0,44.4,93.1,18085.0,37921.0,2.0,0.15,44.0,10.0,34.0,0.0,0,0,,0,0,0,0,0,0,0,0,0,0,,0,0,2.0,2.0,13563750.0,31.777475994487336,32.35,,,,,163,4
Dar Chioukh,Djelfa,Commune,24870,30372,2.02,43522,8647.0,37.3,94.8,16234.0,41259.0,4.0,0.25,2.0,1.0,1.0,0.0,0,0,,0,0,0,0,0,0,0,0,0,0,,0,0,2.0,2.0,12175500.0,31.083801232762365,31.25,,,,,168,9
El Magharia,El Djazaïr [Algiers],Commune,30457,31453,0.32,33329,40750.0,48.7,91.1,16231.0,30363.0,4.0,0.25,12.0,10.0,2.0,0.0,0,0,,0,0,0,0,0,0,0,0,0,0,,0,0,2.0,2.0,12173250.000000002,31.082676962484047,31.25,36.7305475,3.1026854,المقرية,16031,168,16
Ténès,Chlef,Commune,34332,35459,0.32,37582,35459.0,43.9,91.5,16498.0,34388.0,4.0,0.25,11.0,10.0,1.0,0.0,0,0,,0,0,0,0,0,0,0,0,0,0,,0,0,2.0,2.0,12373500.000000002,31.18273701725475,31.25,36.508324,1.2426542,تنس,02002,168,7
Ramdane Djamel,Skikda,Commune,23482,27194,1.48,35416,27194.0,46.5,95.5,16468.0,33822.0,2.0,0.15,16.0,12.0,4.0,0.0,0,0,,0,0,0,0,0,0,0,0,0,0,,0,0,2.0,2.0,12351000.000000002,31.17149431447152,31.12,36.7585337,6.8745445,رمضان جمال,21023,171,6
Chellalat El Adhaoura,Médéa,Commune,23214,27300,1.63,36552,5972.0,45.1,95.7,16485.0,34980.0,2.0,0.15,50.0,36.0,14.0,0.0,0,0,,0,0,0,0,0,0,0,0,0,0,,0,0,2.0,2.0,12363750.0,31.17786517938201,31.12,,,,,171,2
Salah Bouchaour,Skikda,Commune,25933,29764,1.39,38142,29764.0,43.0,93.3,16401.0,35586.0,2.0,0.15,49.0,42.0,7.0,0.0,0,0,,0,0,0,0,0,0,0,0,0,0,,0,0,2.0,2.0,12300750.000000002,31.146385611588983,31.12,36.6997005,6.8379484,صالح بوالشعور,21025,171,6
Sidi Khouiled,Ouargla,Commune,4309,8803,7.41,31848,14179.0,48.8,83.6,15542.0,26625.0,0.0,0.0,6.0,6.0,0.0,0.0,0,0,,0,0,0,0,0,0,0,0,0,0,,0,0,2.0,2.0,11656500.0,30.82446955522932,30.81,31.9137,5.419,سيدي خويلد,30011,174,4
Ghardaïa,Ghardaïa,Province Capital,87599,93423,0.65,104899,,40.1,94.6,205458.0,25684.0,4.0,0.25,47.0,42.0,5.0,0.0,0,0,,0,8,1,1,0,0,2,1,3,0,SAA|ALLIANCE|CAAT|CASH|CIAR,0,0,6.0,0.0,154093500.00000003,20.0,30.69,32.4171,3.6832,غرداية,47001,175,8
Zeribet El Oued,Biskra,Commune,16379,21541,2.78,35272,55809.0,42.6,87.9,15026.0,31004.0,1.0,0.1,5.0,3.0,2.0,0.0,0,0,,0,0,0,0,0,0,0,0,0,0,,0,0,2.0,2.0,11269500.000000002,30.63109506735785,30.45,34.683456,6.3748921,زريبة الوادي,07015,176,5
Aïn Maabed,Djelfa,Commune,13183,19997,4.25,42333,10993.0,37.0,69.8,15663.0,29548.0,1.0,0.1,,,,,0,0,,0,0,0,0,0,0,0,0,0,0,,0,0,2.0,2.0,11747250.000000002,30.869815123121658,30.45,34.8059782,3.1152247,عين معبد,17005,176,10
N'Gaous,Batna,Commune,25731,29504,1.38,37744,3436.0,42.7,91.4,16117.0,34498.0,1.0,0.1,5.0,5.0,0.0,0.0,0,0,,0,0,0,0,0,0,0,0,0,0,,0,0,2.0,2.0,12087750.0,31.039954691907788,30.45,,,,,176,4
Charef,Djelfa,Commune,19373,24028,2.18,35404,28406.0,41.2,82.7,14586.0,29279.0,1.0,0.1,,,,,0,0,,0,0,0,0,0,0,0,0,0,0,,0,0,2.0,2.0,10939500.000000002,30.466202093203886,30.45,34.619593,2.792244,الشارف,17026,176,10
Ben Srour,M'Sila,Commune,18893,23953,2.4,36717,5731.0,42.4,88.2,15568.0,32384.0,1.0,0.1,1.0,1.0,0.0,0.0,0,0,,0,0,0,0,0,0,0,0,0,0,,0,0,2.0,2.0,11676000.000000002,30.83421323097478,30.45,34.9930313,4.4258488,بن سرور,28024,176,10
Hassi R'Mel,Laghouat,Commune,16791,22133,2.8,36389,10787.0,43.3,90.3,15756.0,32859.0,1.0,0.1,23.0,23.0,0.0,0.0,0,0,,0,0,0,0,0,0,0,0,0,0,,0,0,2.0,2.0,11817000.000000002,30.90466750174965,30.45,32.9412958,3.2443135,حاسي الرمل,03006,176,4
Telagh,Sidi Bel Abbès,Commune,20880,24594,1.65,33022,6870.0,47.3,91.9,15619.0,30347.0,1.0,0.1,1.0,1.0,0.0,0.0,0,0,,0,0,0,0,0,0,0,0,0,0,,0,0,2.0,2.0,11714250.0,30.853325825706257,30.45,34.8036693,-0.6044224,تلاغ,22005,176,3
Taibet,Ouargla,Commune,14322,20174,3.49,37378,21965.0,36.7,92.5,13718.0,34575.0,0.0,0.0,1.0,1.0,0.0,0.0,0,0,,0,0,0,0,0,0,0,0,0,0,,0,0,2.0,2.0,10288500.000000002,30.140913226009246,30.17,33.019,6.3995,الطيبات,30015,183,5
Tamacine,Ouargla,Commune,15933,20067,2.33,30396,6830.0,45.2,90.7,13739.0,27569.0,0.0,0.0,,,,,0,0,,0,0,0,0,0,0,0,0,0,0,,0,0,2.0,2.0,10304250.0,30.148783117957507,30.17,32.9568,6.0233,تماسين,30016,183,5
Sfisef,Sidi Bel Abbès,Commune,28346,29696,0.47,32290,2886.0,45.0,91.5,14530.0,29545.0,1.0,0.1,,,,,0,0,,0,0,0,0,0,0,0,0,0,0,,0,0,2.0,2.0,10897500.0,30.4452157146752,30.05,,,,,185,4
Magrane,El Oued,Commune,20102,24577,2.03,35290,15593.0,38.3,78.6,13516.0,27738.0,0.0,0.0,2.0,1.0,1.0,0.0,0,0,,0,0,0,0,0,0,0,0,0,0,,0,0,2.0,2.0,10137000.000000002,30.0652123606022,29.87,33.5174,6.9489,المڨرن,39018,186,4
Relizane,Relizane,Province Capital,111186,130094,1.58,172596,,43.3,91.1,392283.0,14639.0,2.0,0.15,26.0,21.0,5.0,0.0,0,0,,0,10,1,1,1,1,2,1,2,1,SAA|ALLIANCE|AXA|CAAR|CAAT|CASH|CIAR|TRUST,0,0,11.0,1.0,294212250.0,32.5,29.74,35.6696,0.5493,غيليزان,48001,187,3
El Biod,Naâma,Commune,6270,10975,5.76,30064,4208.0,47.6,84.8,14310.0,25494.0,1.5,0.125,,,,,0,0,,0,0,0,0,0,0,0,0,0,0,,0,0,2.0,2.0,10732500.0,30.362769227598218,29.22,33.6969,-0.1346,البيوض,45012,188,9
El Achir,Bordj Bou Arreridj,Commune,18149,23101,2.44,35664,5775.0,41.8,92.4,14908.0,32954.0,4.0,0.25,128.0,71.0,56.0,1.0,0,0,,0,0,0,0,0,0,0,0,0,0,,0,0,2.0,2.0,11181000.000000002,30.586873769743832,29.12,36.0025,4.6335,العشير,34007,189,3
El Karimia,Chlef,Commune,25060,28821,1.41,37070,28821.0,39.4,94.3,14606.0,34957.0,3.0,0.2,20.0,9.0,11.0,0.0,0,0,,0,0,0,0,0,0,0,0,0,0,,0,0,2.0,2.0,10954500.000000002,30.473697228392705,29.12,36.0774092,1.5112398,الكريمية,02004,189,8
Achaacha,Mostaganem,Commune,31360,34789,1.04,41933,21677.0,37.3,81.2,15641.0,34050.0,4.0,0.25,3.0,2.0,1.0,0.0,0,0,,0,0,0,0,0,0,0,0,0,0,,0,0,2.0,2.0,11730750.000000002,30.86157047441396,29.12,36.2449302,0.6235599,عشعاشة,27017,189,5
Bourached,Aïn Defla,Commune,25844,29680,1.39,38076,29680.0,40.1,91.6,15268.0,34878.0,3.0,0.2,48.0,19.0,28.0,1.0,0,0,,0,0,0,0,0,0,0,0,0,0,,0,0,2.0,2.0,11451000.000000002,30.72178620314253,29.12,36.1046,1.9281,بوراشد,44009,189,3
Hanchir Toumghani,Oum El Bouaghi,Commune,18775,23159,2.12,33789,23988.0,40.9,90.1,13820.0,30444.0,1.0,0.1,1.0,1.0,0.0,0.0,0,0,,0,0,0,0,0,0,0,0,0,0,,0,0,2.0,2.0,10365000.0,30.179138415472213,29.09,35.9371712,6.7319584,هنشير تومغني,04013,193,3
Yellel,Relizane,Commune,34010,38101,1.14,46744,3499.0,41.2,79.4,19259.0,37115.0,2.0,0.15,,,,,0,0,,0,1,0,0,0,0,0,0,1,0,CIAR,0,0,3.0,2.0,14444250.0,32.217440430070866,29.07,35.6584,0.3543,يلل,48025,194,4
Ibn Badis,Constantine,Commune,13869,18735,3.05,32192,33262.0,45.5,94.7,14647.0,30486.0,2.0,0.15,,,,,0,0,,0,0,0,0,0,0,0,0,0,0,,0,0,2.0,2.0,10985250.0,30.48906225552977,28.99,36.3480237,6.7097178,إبن باديس,25003,195,5
Mesra,Mostaganem,Commune,20053,25196,2.31,38002,9576.0,42.3,75.4,16075.0,28654.0,2.0,0.15,55.0,28.0,27.0,0.0,0,0,,0,0,0,0,0,0,0,0,0,0,,0,0,2.0,2.0,12056250.0,31.02421490801128,28.99,35.8389326,0.1574992,ماسرة,27022,195,6
Oued Tlelat,Oran,Commune,13289,18397,3.31,33037,17243.0,47.8,90.6,15792.0,29932.0,2.0,0.15,127.0,81.0,46.0,0.0,0,0,,0,0,0,0,0,0,0,0,0,0,,0,0,2.0,2.0,11844000.0,30.918158745089524,28.99,35.4853,-0.4504,وادى تليلات,31011,195,8
Bir El Arch,Sétif,Commune,21004,24995,1.75,34186,14668.0,43.2,95.8,14768.0,32750.0,2.0,0.15,273.0,248.0,9.0,16.0,0,0,,0,0,0,0,0,0,0,0,0,0,,0,0,2.0,2.0,11076000.000000002,30.534407823422114,28.99,36.1012237,5.7440447,بئر العرش,19008,195,6
Khelil,Bordj Bou Arreridj,Commune,23537,26037,1.01,31225,14739.0,47.8,94.4,14926.0,29476.0,2.0,0.15,52.0,46.0,6.0,0.0,0,0,,0,0,0,0,0,0,0,0,0,0,,0,0,2.0,2.0,11194500.000000002,30.593619391413768,28.99,36.1113,5.029,خليل,34020,195,4
Djendel,Aïn Defla,Commune,26849,30170,1.17,37217,30170.0,41.7,92.8,15519.0,34537.0,2.0,0.15,4.0,3.0,1.0,0.0,0,0,,0,0,0,0,0,0,0,0,0,0,,0,0,2.0,2.0,11639250.0,30.815850149762174,28.99,36.7814565,7.1617769,جندل,21005,195,4
Oum Toub,Skikda,Commune,31051,34458,1.05,41560,34458.0,38.5,91.2,16001.0,37903.0,2.0,0.15,19.0,18.0,1.0,0.0,0,0,,0,0,0,0,0,0,0,0,0,0,,0,0,2.0,2.0,12000750.000000002,30.996482907812656,28.99,36.6889452,6.5584944,أم الطوب,21028,195,8
Kadiria,Bouira,Commune,17923,22327,2.22,33158,13203.0,44.6,93.9,14788.0,31135.0,2.0,0.15,4.0,4.0,0.0,0.0,0,0,,0,0,0,0,0,0,0,0,0,0,,0,0,2.0,2.0,11091000.000000002,30.541902958610933,28.99,36.5253163,3.5963676,قادرية,10005,195,2
Beni Oulbane,Skikda,Commune,20977,25074,1.8,34569,25074.0,43.4,91.1,15003.0,31492.0,2.0,0.15,37.0,35.0,1.0,1.0,0,0,,0,0,0,0,0,0,0,0,0,0,,0,0,2.0,2.0,11252250.000000002,30.622475661890714,28.99,36.6282861,6.6174172,بني والبان,21021,195,8
Kaous,Jijel,Commune,21439,26137,2.0,37338,26137.0,40.1,95.4,14973.0,35620.0,2.0,0.15,33.0,33.0,0.0,0.0,0,0,,0,0,0,0,0,0,0,0,0,0,,0,0,2.0,2.0,11229750.000000002,30.61123295910749,28.99,36.7590016,5.7313651,قاوس,18014,195,3
Reggane,Adrar,Commune,14179,20402,3.71,39275,20402.0,39.4,89.5,15474.0,35151.0,2.0,0.15,,,,,0,0,,0,0,0,0,0,0,0,0,0,0,,0,0,2.0,2.0,11605500.0,30.79898609558734,28.99,25.4775826,-4.3665328,رڨان,01004,195,4
Lioua,Biskra,Commune,15960,21416,2.98,36359,13124.0,41.5,92.3,15089.0,33559.0,2.0,0.15,1.0,1.0,0.0,0.0,0,0,,0,0,0,0,0,0,0,0,0,0,,0,0,2.0,2.0,11316750.0,30.654704743202625,28.99,34.5726359,5.224675,لواء,07022,195,6
Ouled Mimoun,Tlemcen,Commune,24350,26389,0.81,30499,26389.0,44.1,93.4,13450.0,28486.0,1.0,0.1,1.0,1.0,0.0,0.0,0,0,,0,0,0,0,0,0,0,0,0,0,,0,0,2.0,2.0,10087500.0,30.04047841447911,28.78,34.9018053,-1.0442162,أولاد ميمون,13013,207,4
Menaceur,Tipaza,Commune,22684,25480,1.17,31410,9588.0,42.9,92.8,13475.0,29148.0,1.0,0.1,70.0,45.0,25.0,0.0,0,0,,0,0,0,0,0,0,0,0,0,0,,0,0,2.0,2.0,10106250.0,30.04984733346513,28.78,36.4312,2.2412,مناصر,42002,207,4
Tadjemout,Laghouat,Commune,20321,24320,1.81,33604,10486.0,40.4,72.4,13576.0,24329.0,1.0,0.1,8.0,8.0,0.0,0.0,0,0,,0,0,0,0,0,0,0,0,0,0,,0,0,2.0,2.0,10182000.000000002,30.08769776616865,28.78,,,,,207,5
Sidi Makhlouf,Laghouat,Commune,8061,12292,4.31,26269,8101.0,51.2,88.1,13450.0,23143.0,1.0,0.1,10.0,10.0,0.0,0.0,0,0,,0,0,0,0,0,0,0,0,0,0,,0,0,1.0,1.0,10087500.0,17.540478414479107,28.78,34.1276242,3.0060262,سيدي مخلوف,03004,207,5
Sidi Akkacha,Chlef,Commune,23374,26595,1.3,33552,26595.0,41.8,93.7,14025.0,31438.0,4.0,0.25,,,,,0,0,,0,0,0,0,0,0,0,0,0,0,,0,0,2.0,2.0,10518750.0,30.255963551157585,28.72,,,,,211,9
Emir Abdelkader,Jijel,Commune,31870,38468,1.9,53975,38468.0,43.6,94.8,23533.0,51168.0,2.0,0.15,484.0,479.0,0.0,5.0,0,0,,0,2,1,0,0,1,0,0,0,0,SAA|CAAR,0,0,3.0,1.0,17649750.0,21.31915081992096,28.63,36.7557894,5.778586,الامير عبد القادر,18006,212,4
Ouled Derradj,M'Sila,Commune,22851,26644,1.55,35128,12209.0,40.2,90.1,14121.0,31650.0,2.0,0.15,8.0,8.0,0.0,0.0,0,0,,0,0,0,0,0,0,0,0,0,0,,0,0,2.0,2.0,10590750.000000002,30.291940200063905,28.59,35.6715243,4.6290103,أولاد دراج,28004,213,11
Bourkika,Tipaza,Commune,18810,22118,1.63,29607,48056.0,47.0,93.1,13915.0,27564.0,4.0,0.25,159.0,128.0,30.0,1.0,0,0,,0,0,0,0,0,0,0,0,0,0,,0,0,1.0,1.0,10436250.0,17.714740307619092,28.18,36.4312,2.4747,بورقيقة,42005,214,5
Gdyel,Oran,Commune,30000,37315,2.21,55266,17758.0,45.8,87.6,25312.0,48413.0,2.0,0.15,47.0,42.0,5.0,0.0,0,0,,0,2,0,1,0,0,0,0,1,0,ALLIANCE|CIAR,0,0,3.0,1.0,18984000.000000004,21.985843094966185,28.13,35.7175,-0.423,ڨديل,31002,215,9
El Affroun,Blida,Commune,37602,42465,1.22,52858,21088.0,45.7,92.7,24156.0,48999.0,4.0,0.25,7.0,7.0,0.0,0.0,0,0,,0,2,0,0,1,0,0,0,1,0,AXA|CIAR,0,0,3.0,1.0,18117000.0,21.55262428105259,27.68,36.4460675,2.5382873,العفرون,09010,216,13
Dréan,El Tarf,Commune,32066,37686,1.63,50399,4356.0,48.7,95.0,24544.0,47879.0,2.0,0.15,4.0,1.0,3.0,0.0,0,0,,0,2,1,0,0,0,0,0,1,0,SAA|CIAR,0,0,3.0,1.0,18408000.0,21.698029903715632,27.68,36.621,7.7509,الذرعان,36013,216,3
Oued Alleug,Blida,Commune,33915,40710,1.84,56553,,43.4,93.75,24123.0,49416.5,4.0,0.25,,,,,0,0,,0,2,1,0,0,0,0,0,1,0,SAA|CIAR,0,0,3.0,1.0,18092250.0,21.54025730799104,27.68,,,,,216,13
Taougrite,Chlef,Commune,24267,27574,1.29,34703,27574.0,39.3,91.9,13638.0,31892.0,4.0,0.25,5.0,2.0,3.0,0.0,0,0,,0,0,0,0,0,0,0,0,0,0,,0,0,2.0,2.0,10228500.000000002,30.11093268525398,27.57,36.2460876,0.8993445,تاوقريت,02006,219,10
Theniet El Had,Tissemsilt,Commune,28788,30777,0.67,34710,7841.0,39.2,92.2,13606.0,32003.0,2.0,0.15,4.0,4.0,0.0,0.0,0,0,,0,0,0,0,0,0,0,0,0,0,,0,0,2.0,2.0,10204500.000000002,30.09894046895188,27.44,35.8078,2.0297,ثنية الاحد,38003,220,2
Zeboudja,Chlef,Commune,23079,26539,1.41,34126,26539.0,39.6,87.8,13514.0,29963.0,4.0,0.25,2.0,2.0,0.0,0.0,0,0,,0,0,0,0,0,0,0,0,0,0,,0,0,2.0,2.0,10135500.0,30.064462847083323,27.27,36.3910799,1.3907765,الزبوجة,02020,221,11
Sidi M'hamed,M'Sila,Commune,6225,8300,2.92,13931,43835.0,39.9,91.3,16149.0,36953.0,4.0,0.25,220.0,176.0,42.0,2.0,0,1,Urbain/Résidentiel,0,0,0,0,0,0,0,0,0,0,,0,0,0.0,0.0,12111750.0,6.051946908209897,25.77,,,,,222,12
Sidi M'Hamed,El Djazaïr [Algiers],Commune,90455,67873,-2.83,40474,43835.0,39.9,91.3,16149.0,36953.0,4.0,0.25,220.0,176.0,42.0,2.0,0,1,Urbain/Résidentiel,0,0,0,0,0,0,0,0,0,0,,0,0,2.0,2.0,12111750.0,31.0519469082099,25.77,,,,,222,17
Bayadha,El Oued,Commune,26535,32926,2.18,48555,22755.0,37.4,92.0,18160.0,44671.0,0.0,0.0,16.0,1.0,15.0,0.0,0,0,,0,1,0,0,0,0,1,0,0,0,CAAT,0,0,3.0,2.0,13620000.0,31.8055827514454,25.07,33.2697,6.9159,البياضة,39004,224,5
Arris,Batna,Commune,24607,30207,2.07,43691,19635.0,43.8,81.5,19137.0,35608.0,1.0,0.1,1239.0,1237.0,0.0,2.0,0,0,,0,1,0,0,0,1,0,0,0,0,CAAR,0,0,2.0,1.0,14352750.0,19.671720105419084,24.7,35.3105194,6.2007524,اريس,05016,225,5
Blidet Amor,Ouargla,Commune,12135,14540,1.82,20133,,41.9,90.7,13189.5,26625.0,0.0,0.0,,,,,0,0,,0,0,0,0,0,0,0,0,0,0,,0,0,1.0,1.0,9892125.0,17.442854278644774,24.19,,,,,226,7
Zaouia El Abidia,Ouargla,Commune,15381,19993,2.66,32054,10330.0,39.5,89.1,12661.0,28560.0,0.0,0.0,,,,,0,0,,0,0,0,0,0,0,0,0,0,0,,0,0,2.0,2.0,9495750.000000002,29.744795331280294,23.89,33.072,6.0809,الزاوية العابدية,30009,227,8
Hassani Abdelkrim,El Oued,Commune,17207,22755,2.83,37631,2513.0,34.4,81.0,12945.0,30481.0,0.0,0.0,6.0,4.0,2.0,0.0,0,0,,0,0,0,0,0,0,0,0,0,0,,0,0,2.0,2.0,9708750.0,29.85122625096149,23.89,33.412,6.8939,بلدية حساني عبد الكريم,39012,227,6
Robbah,El Oued,Commune,17243,21965,2.45,33958,5172.0,37.9,90.1,12870.0,30596.0,0.0,0.0,2.0,1.0,1.0,0.0,0,0,,0,0,0,0,0,0,0,0,0,0,,0,0,2.0,2.0,9652500.0,29.823119494003432,23.89,33.2146,6.9104,رباح,39002,227,6
Mohammadia,El Djazaïr [Algiers],Commune,42079,62543,4.04,127639,30575.0,49.9,93.2,63692.0,118960.0,4.0,0.25,806.0,569.0,237.0,0.0,0,0,,0,8,5,1,0,0,0,0,2,0,SAA|ALLIANCE|CIAR,0,0,8.0,0.0,47769000.00000001,20.0,23.64,36.7353224,3.1359743,المحمدية,16029,230,18
Mohammadia,Mascara,Commune,71366,84700,1.73,115289,30575.0,49.9,93.2,63692.0,118960.0,4.0,0.25,806.0,569.0,237.0,0.0,0,0,,0,8,5,1,0,0,0,0,2,0,SAA|ALLIANCE|CIAR,0,0,7.0,0.0,47769000.00000001,20.0,23.64,36.7353224,3.1359743,المحمدية,16029,230,4
Chabet el Ameur,Boumerdès,Commune,30223,33459,1.02,40182,7034.0,45.8,91.9,18403.0,36927.0,2.0,0.15,65.0,54.0,11.0,0.0,0,0,,0,1,1,0,0,0,0,0,0,0,SAA,0,0,2.0,1.0,13802250.000000002,19.39664864398952,23.44,36.5703,3.6996,شعبة العامر,35014,232,7
Mechroha,Souk Ahras,Commune,17189,21802,2.41,33446,21802.0,39.1,84.6,13077.0,28295.0,1.0,0.1,,,,,0,0,,0,0,0,0,0,0,0,0,0,0,,0,0,2.0,2.0,9807750.0,29.90069414320768,23.11,36.2941,7.836,المشروحة,41004,233,2
Bougtoub,El Bayadh,Commune,13605,18568,3.16,32500,3252.0,40.9,85.4,13292.0,27755.0,1.0,0.1,1.0,0.0,1.0,0.0,0,0,,0,0,0,0,0,0,0,0,0,0,,0,0,2.0,2.0,9969000.0,29.981266846487458,23.11,33.9775,0.0879,بوقطب,32010,233,1
Tlemcen,Tlemcen,Province Capital,132341,140158,0.58,155410,,45.6,92.3,536874.0,11322.0,1.0,0.1,119.0,106.0,13.0,0.0,0,0,,0,17,0,5,1,2,5,1,2,1,ALLIANCE|AXA|CAAR|CAAT|CASH|CIAR|TRUST,0,0,10.0,0.0,402655500.0,20.0,23.05,34.8959491,-1.3501175,تلمسان,13001,235,5
Medjedel,M'Sila,Commune,18616,21058,1.24,26289,2289.0,48.4,88.0,12724.0,23134.0,1.0,0.1,,,,,0,0,,0,0,0,0,0,0,0,0,0,0,,0,0,1.0,1.0,9543000.0,17.268405007125068,22.8,35.0618873,3.3440071,مجدل,28042,236,13
Aïn Deheb,Tiaret,Commune,25366,28595,1.21,35478,20380.0,36.1,92.8,12808.0,32924.0,1.0,0.1,,,,,0,0,,0,0,0,0,0,0,0,0,0,0,,0,0,2.0,2.0,9606000.000000002,29.7998845749181,22.8,34.847125,1.530876,عين الذهب,14006,236,6
Ouled Addi Guebala,M'Sila,Commune,22369,25456,1.3,32125,6686.0,40.3,88.4,12946.0,28398.0,1.0,0.1,2.0,2.0,0.0,0.0,0,0,,0,0,0,0,0,0,0,0,0,0,,0,0,2.0,2.0,9709500.000000002,29.85160100772093,22.8,35.676541,4.7484866,اولاد عدي لقبالة,28014,236,13
Cheraia,Skikda,Commune,13788,18759,3.13,32650,18759.0,39.7,94.6,12962.0,30887.0,1.0,0.1,3.0,3.0,0.0,0.0,0,0,,0,0,0,0,0,0,0,0,0,0,,0,0,2.0,2.0,9721500.0,29.857597115871982,22.8,37.0030051,6.4972247,الشرايع,21031,236,10
Bologhine,El Djazaïr [Algiers],Commune,43283,43835,0.13,44846,,48.0,93.35,29822.5,57347.0,4.0,0.25,,,,,0,0,,0,3,3,0,0,0,0,0,0,0,SAA,0,0,2.0,0.0,22366875.0,11.17618345842403,21.74,36.8039256,3.0296193,بولوغين,16006,240,19
Ouled Chebel,El Djazaïr [Algiers],Commune,16335,20006,2.05,28816,68354.0,46.4,94.1,13371.0,27116.0,4.0,0.25,178.0,36.0,140.0,2.0,0,0,,0,0,0,0,0,0,0,0,0,0,,0,0,1.0,1.0,10028250.000000002,17.51087263048328,21.59,36.6082831,2.9737753,أولاد الشبل,16036,241,20
Tidjelabine,Boumerdès,Commune,13888,18266,2.78,29912,7882.0,44.6,95.4,13341.0,28536.0,4.0,0.25,43.0,33.0,5.0,5.0,0,0,,0,0,0,0,0,0,0,0,0,0,,0,0,1.0,1.0,10005750.000000002,17.49962992770006,21.59,36.6651,3.4964,تيجلابين,35013,241,8
Oum Drou,Chlef,Commune,17314,21326,2.11,31034,21326.0,41.9,93.5,13003.0,29017.0,4.0,0.25,3.0,3.0,0.0,0.0,0,0,,0,0,0,0,0,0,0,0,0,0,,0,0,2.0,2.0,9752250.000000002,29.872962143009055,21.59,36.2034869,1.3460801,أم الذروع,02033,241,12
Oued El Aneb,Annaba,Commune,17306,21088,2.0,30099,32870.0,44.2,96.2,13304.0,28955.0,2.0,0.15,37.0,5.0,32.0,0.0,0,0,,0,0,0,0,0,0,0,0,0,0,,0,0,2.0,2.0,9978000.0,29.98576392760075,21.46,36.936216,7.4220268,وادي العنب,23006,244,4
Lardjem,Tissemsilt,Commune,23151,25217,0.86,29411,5027.0,44.9,91.6,13206.0,26940.0,2.0,0.15,1.0,1.0,0.0,0.0,0,0,,0,0,0,0,0,0,0,0,0,0,,0,0,1.0,1.0,9904500.000000002,17.449037765175547,21.46,35.6852,1.5491,لارجم,38006,244,3
Bouhadjar,El Tarf,Commune,16385,20215,2.12,29504,8195.0,44.6,92.9,13159.0,27409.0,2.0,0.15,,,,,0,0,,0,0,0,0,0,0,0,0,0,0,,0,0,1.0,1.0,9869250.0,17.431424197481824,21.46,36.4401,8.1052,بوحجار,36002,244,4
Timizart,Tizi Ouzou,Commune,27878,28996,0.39,31123,9731.0,41.8,92.7,13009.0,28851.0,2.0,0.15,104.0,43.0,61.0,0.0,0,0,,0,0,0,0,0,0,0,0,0,0,,0,0,2.0,2.0,9756750.0,29.875210683565705,21.46,36.7971206,4.1694482,تيميزارت,15008,244,2
Sirat,Mostaganem,Commune,17979,21677,1.89,30354,17223.0,43.3,78.8,13143.0,23919.0,2.0,0.15,126.0,112.0,14.0,0.0,0,0,,0,0,0,0,0,0,0,0,0,0,,0,0,2.0,2.0,9857250.000000002,29.925428089330776,21.46,35.780582,0.183571,سيرات,27020,244,7
Mediouna,Relizane,Commune,28733,30744,0.68,34725,15422.0,38.4,93.2,13334.0,32364.0,2.0,0.15,,,,,0,0,,0,0,0,0,0,0,0,0,0,0,,0,0,2.0,2.0,10000500.0,29.99700663038397,21.46,36.0524,0.7498,مديونة,48009,244,5
Boumerdès,Boumerdès,Province Capital,33646,41685,2.17,61300,,48.1,92.35,567364.0,23706.0,2.0,0.15,613.0,496.0,117.0,0.0,0,1,Urbain,0,11,1,3,1,1,3,1,1,0,SAA|ALLIANCE|AXA|CAAR|CAAT|CASH|CIAR,0,0,4.0,0.0,425523000.0,20.0,21.3,36.7048,3.4662,بومرداس,35001,250,9
Sendjas,Chlef,Commune,26228,29043,1.02,34893,29043.0,35.8,92.4,12492.0,32241.0,3.0,0.2,2.0,1.0,1.0,0.0,0,0,,0,0,0,0,0,0,0,0,0,0,,0,0,2.0,2.0,9369000.0,29.6814614389348,21.29,36.0396831,1.2713566,سنجاس,02019,251,13
Tadmaït,Tizi Ouzou,Commune,21547,22838,0.58,25360,67873.0,49.6,93.7,12579.0,23762.0,2.0,0.15,124.0,119.0,5.0,0.0,0,0,,0,0,0,0,0,0,0,0,0,0,,0,0,1.0,1.0,9434250.0,17.21406527700615,21.16,36.7209434,3.8253437,تادمايت,15064,252,3
Oued Ghir,Béjaïa,Commune,15728,19345,2.09,28079,29404.0,45.2,92.3,12692.0,25917.0,2.0,0.15,198.0,162.0,35.0,1.0,0,0,,0,0,0,0,0,0,0,0,0,0,,0,0,1.0,1.0,9519000.0,17.25641279082296,21.16,36.7149207,4.9085928,وادي غير,06051,252,2
Oued El Djemaa,Relizane,Commune,20844,23480,1.2,29093,7990.0,43.7,88.2,12714.0,25660.0,2.0,0.15,,,,,0,0,,0,0,0,0,0,0,0,0,0,0,,0,0,1.0,1.0,9535500.0,17.264657439530662,21.16,35.7343,0.6812,وادى الجمعة,48026,252,6
Timezrit,Boumerdès,Commune,10699,9991,-0.68,8833,32954.0,37.8,90.8,12658.0,30405.0,2.0,0.15,48.0,27.0,21.0,0.0,0,0,,0,0,0,0,0,0,0,0,0,0,,0,0,0.0,0.0,9493500.000000002,4.743671061001974,21.16,36.61,3.8068,تمزريت,35018,252,10
Rouached,Mila,Commune,25399,27086,0.65,30410,27086.0,41.5,95.4,12620.0,29011.0,2.0,0.15,35.0,33.0,1.0,1.0,0,0,,0,0,0,0,0,0,0,0,0,0,,0,0,2.0,2.0,9465000.0,29.72943030414322,21.16,36.2121,6.2677,رواشد,43015,252,2
Draâ El-Kaïd,Béjaïa,Commune,27900,29221,0.46,31758,12624.0,39.8,93.9,12640.0,29821.0,2.0,0.15,6.0,6.0,0.0,0.0,0,0,,0,0,0,0,0,0,0,0,0,0,,0,0,2.0,2.0,9480000.0,29.73692543933204,21.16,,,,,252,2
Chekfa,Jijel,Commune,25187,26553,0.53,29201,26553.0,44.3,95.1,12936.0,27770.0,2.0,0.15,225.0,225.0,0.0,0.0,0,0,,0,0,0,0,0,0,0,0,0,0,,0,0,1.0,1.0,9702000.000000002,17.347853440126524,21.16,36.7728541,5.9468436,الشقفة,18007,252,5
Timezrit,Béjaïa,Commune,22392,25853,1.45,33486,32954.0,37.8,90.8,12658.0,30405.0,2.0,0.15,48.0,27.0,21.0,0.0,0,0,,0,0,0,0,0,0,0,0,0,0,,0,0,2.0,2.0,9493500.000000002,29.743671061001976,21.16,36.61,3.8068,تمزريت,35018,252,2
Ras El Ma,Sidi Bel Abbès,Commune,14862,18644,2.29,28040,2476.0,45.8,91.6,12842.0,25685.0,2.0,0.15,4.0,4.0,0.0,0.0,0,0,,0,0,0,0,0,0,0,0,0,0,,0,0,1.0,1.0,9631500.0,17.312626304739087,21.16,34.5039368,-0.8212282,رأس الماء,22023,252,5
Birine,Djelfa,Commune,26617,30913,1.51,40468,7933.0,41.4,67.3,16754.0,27235.0,1.0,0.1,,,,,0,0,,0,1,0,1,0,0,0,0,0,0,ALLIANCE,0,0,2.0,1.0,12565500.0,18.7786747476716,20.59,35.6315904,3.2060765,البيرين,17008,261,12
Sidi Benyebka,Oran,Commune,5893,7516,2.46,11645,,45.9,90.55,16530.0,31606.5,2.0,0.15,,,,,0,0,,0,1,1,0,0,0,0,0,0,0,SAA,0,0,0.0,0.0,12397500.0,6.194729233556852,20.34,,,,,262,10
Aïn Béïda,Oum El Bouaghi,Commune,92197,118662,2.56,186888,17598.0,45.0,94.2,13988.0,29281.0,0.0,0.0,2.0,2.0,0.0,0.0,0,0,,0,4,1,1,0,1,0,0,1,0,SAA|ALLIANCE|CAAR|CIAR,0,0,12.0,8.0,10491000.000000002,55.242097551058265,20.05,35.7948292,7.3338883,عين البيضاء,04002,263,4
Aïn Beida,Ouargla,Commune,14500,19039,2.76,31084,17598.0,45.0,94.2,13988.0,29281.0,0.0,0.0,2.0,2.0,0.0,0.0,0,0,,0,4,1,1,0,1,0,0,1,0,SAA|ALLIANCE|CAAR|CIAR,0,0,2.0,0.0,10491000.000000002,5.242097551058272,20.05,35.7948292,7.3338883,عين البيضاء,04002,263,9
Lakhdaria,Bouira,Commune,52723,59746,1.26,74828,16173.0,46.0,94.4,34421.0,70638.0,2.0,0.15,34.0,26.0,8.0,0.0,0,0,,0,3,1,1,0,1,0,0,0,0,SAA|ALLIANCE|CAAR,0,0,4.0,1.0,25815750.000000004,25.39950241671267,19.97,36.5613265,3.5173819,الأخضرية,10013,265,3
Bougaa,Sétif,Commune,28431,30987,0.86,36181,14798.0,47.6,91.2,17222.0,32997.0,2.0,0.15,4.0,4.0,0.0,0.0,0,0,,0,1,0,0,0,0,0,0,1,0,CIAR,0,0,2.0,1.0,12916500.0,18.954060911089904,19.79,36.3394384,5.0449321,بوقاعـة,19043,266,7
Douaouda,Tipaza,Commune,17283,22408,2.63,35761,10411.0,46.8,92.3,16736.0,33007.0,4.0,0.25,103.0,92.0,11.0,0.0,0,0,,0,1,1,0,0,0,0,0,0,0,SAA,0,0,2.0,1.0,12552000.000000002,18.771929126001663,19.79,36.6034,2.7823,دواودة,42004,266,6
Timimoun,Adrar,Commune,28595,33060,1.46,42927,33060.0,41.2,93.6,17686.0,40180.0,2.0,0.15,,,,,0,0,,0,1,0,0,0,0,0,0,1,0,CIAR,0,0,2.0,1.0,13264500.000000002,19.127948047470447,19.79,29.2536341,0.218653,تيميمون,01009,266,5
Bouguirat,Mostaganem,Commune,26954,31469,1.56,41586,25196.0,42.0,86.2,17466.0,35847.0,2.0,0.15,27.0,6.0,21.0,0.0,0,0,,0,1,0,0,0,0,0,0,1,0,CIAR,0,0,2.0,1.0,13099500.000000002,19.04550156039346,19.79,35.751283,0.2465079,بوقيراط,27019,266,8
Bouchegouf,Guelma,Commune,20921,25443,1.98,36186,79952.0,49.2,93.4,17804.0,33798.0,2.0,0.15,14.0,14.0,0.0,0.0,0,0,,0,1,0,1,0,0,0,0,0,0,ALLIANCE,0,0,2.0,1.0,13353000.0,19.172169345084463,19.79,36.4698174,7.7139471,بوشقوف,24025,266,2
Zemmouri,Boumerdès,Commune,21012,26408,2.31,39849,19356.0,44.4,90.6,17693.0,36103.0,2.0,0.15,44.0,39.0,5.0,0.0,0,0,,0,1,0,0,0,0,0,0,1,0,CIAR,0,0,2.0,1.0,13269750.000000002,19.13057134478653,19.79,36.7202,3.6008,زموري,35011,266,11
Aïn Kercha,Oum El Bouaghi,Commune,27255,32377,1.74,44143,12318.0,41.8,86.4,18452.0,38140.0,1.0,0.1,9.0,6.0,2.0,1.0,0,0,,0,2,0,1,0,0,0,0,1,0,ALLIANCE|CIAR,0,0,2.0,0.0,13839000.0,6.91501172520212,19.24,35.9275632,6.6811426,عين كرشة,04012,272,5
Boutlelis,Oran,Commune,17599,22898,2.67,36775,4387.0,46.3,90.5,17027.0,33281.0,2.0,0.15,39.0,29.0,10.0,0.0,0,1,Zone d'activités Boutlélis,0,1,0,0,0,0,0,0,1,0,CIAR,0,0,2.0,1.0,12770250.0,18.88098334299894,19.12,35.5076,-0.9009,بوتليليس,31024,273,11
Laghouat,Laghouat,Province Capital,107273,144747,3.04,248213,,37.5,83.35,327987.0,7791.5,1.0,0.1,532.0,509.0,21.0,2.0,1,1,ZI Bouchaker,1,7,0,2,1,1,1,0,2,0,ALLIANCE|AXA|CAAR|CAAT|CIAR,1,1,16.0,8.0,245990250.00000003,20.0,19.06,33.7939523,2.8368501,الأغواط,03001,274,7
Khraicia,El Djazaïr [Algiers],Commune,17690,27910,4.67,63419,,48.0,93.35,29822.5,57347.0,4.0,0.25,,,,,0,0,,0,4,2,1,0,0,0,0,1,0,SAA|ALLIANCE|CIAR,0,0,4.0,0.0,22366875.0,11.17618345842403,18.99,,,,,275,21
Sidi Amrane,El Oued,Commune,18732,21772,1.52,28541,10161.0,42.1,94.7,12016.0,27028.0,0.0,0.0,2.0,2.0,0.0,0.0,0,0,,0,0,0,0,0,0,0,0,0,0,,0,0,1.0,1.0,9012000.000000002,17.003077221440964,18.3,33.4303,6.0123,سيدي عمران,39030,276,8
Aïn M'lila,Oum El Bouaghi,Commune,69798,88441,2.4,135429,2477.0,44.5,79.3,60266.0,107395.0,1.0,0.1,407.0,172.0,229.0,6.0,1,1,ZI Ain M'lila,1,3,0,0,0,1,0,0,2,0,CAAR|CIAR,1,1,9.0,5.0,45199500.0,20.0,18.2,36.0260869,6.4239017,عين مليلة,04003,277,6
In Ghar,Tamanrasset,Commune,8059,11225,3.37,20381,14655.0,48.9,87.2,9966.0,17772.0,0.0,0.0,,,,,0,0,,0,0,0,0,0,0,0,0,0,0,,0,0,1.0,1.0,7474500.0,16.234825864587272,18.08,27.1037909,1.8904637,عـيـن غــار,11003,278,2
Chetma,Biskra,Commune,8677,13699,4.67,31165,4923.0,44.2,76.1,13775.0,23717.0,1.0,0.1,4.0,2.0,1.0,1.0,0,0,,0,1,0,0,0,0,0,0,1,0,CIAR,0,0,2.0,1.0,10331250.0,17.662274361297374,18.04,34.8655388,5.7729266,شتمة,07004,279,7
N'Goussa,Ouargla,Commune,13344,16581,2.2,24513,8803.0,39.8,91.9,9756.0,22527.0,0.0,0.0,2.0,2.0,0.0,0.0,0,0,,0,0,0,0,0,0,0,0,0,0,,0,0,1.0,1.0,7317000.0,16.1561269451047,17.91,,,,,280,10
Selmana,Djelfa,Commune,14008,19471,3.35,35222,24028.0,38.5,79.0,13560.0,27825.0,1.0,0.1,,,,,0,0,,0,1,1,0,0,0,0,0,0,0,SAA,0,0,2.0,1.0,10170000.0,17.581701658017597,17.86,34.1762848,3.5904298,سلمانة,17022,281,13
Rouina,Aïn Defla,Commune,17437,21572,2.15,31641,10710.0,42.5,90.5,13447.0,28635.0,4.0,0.25,52.0,24.0,28.0,0.0,0,0,,0,0,0,0,0,0,0,0,0,0,,0,0,2.0,2.0,10085250.0,30.039354144200782,17.84,36.1867,1.8155,روينة,44016,282,5
Ouldja Boulballout,Skikda,Commune,4045,4488,1.04,5411,,43.8,94.6,13408.0,30887.0,2.0,0.15,,,,,0,0,,0,0,0,0,0,0,0,0,0,0,,0,0,0.0,0.0,10056000.000000002,5.024738630582594,17.71,,,,,283,11
Oued Zehour,Skikda,Commune,6602,6744,0.21,7007,,43.8,94.6,13408.0,30887.0,2.0,0.15,,,,,0,0,,0,0,0,0,0,0,0,0,0,0,,0,0,0.0,0.0,10056000.000000002,5.024738630582594,17.71,36.922037,6.3040281,وادي الزهور,21014,283,11
Ouled Hbaba,Skikda,Commune,7959,8369,0.5,9161,,43.8,94.6,13408.0,30887.0,2.0,0.15,,,,,0,0,,0,0,0,0,0,0,0,0,0,0,,0,0,0.0,0.0,10056000.000000002,5.024738630582594,17.71,,,,,283,11
Kheneg Mayoum,Skikda,Commune,4382,4587,0.46,4980,,43.8,94.6,13408.0,30887.0,2.0,0.15,,,,,0,0,,0,0,0,0,0,0,0,0,0,0,,0,0,0.0,0.0,10056000.000000002,5.024738630582594,17.71,36.8777912,6.9357204,خنق مايوم,21036,283,11
Bin El Ouiden,Skikda,Commune,17587,21629,2.09,31388,,43.8,94.6,13408.0,30887.0,2.0,0.15,,,,,0,0,,0,0,0,0,0,0,0,0,0,0,,0,0,2.0,2.0,10056000.000000002,30.024738630582597,17.71,,,,,283,11
Beni Bechir,Skikda,Commune,8450,9640,1.33,12220,,43.8,94.6,13408.0,30887.0,2.0,0.15,,,,,0,0,,0,0,0,0,0,0,0,0,0,0,,0,0,0.0,0.0,10056000.000000002,5.024738630582594,17.71,,,,,283,11
Aïn Charchar,Skikda,Commune,13717,15725,1.38,20109,,43.8,94.6,13408.0,30887.0,2.0,0.15,,,,,0,0,,0,0,0,0,0,0,0,0,0,0,,0,0,1.0,1.0,10056000.000000002,17.524738630582593,17.71,,,,,283,11
M'Chedallah,Bouira,Commune,21593,24406,1.23,30425,6738.0,44.2,93.5,13448.0,28447.0,2.0,0.15,71.0,62.0,9.0,0.0,0,0,,0,0,0,0,0,0,0,0,0,0,,0,0,2.0,2.0,10086000.000000002,30.039728900960228,17.71,,,,,283,4
Zerdaza,Skikda,Commune,12258,12555,0.24,13108,,43.8,94.6,13408.0,30887.0,2.0,0.15,,,,,0,0,,0,0,0,0,0,0,0,0,0,0,,0,0,0.0,0.0,10056000.000000002,5.024738630582594,17.71,,,,,283,11
Meskiana,Oum El Bouaghi,Commune,25849,28315,0.92,33362,7107.0,44.6,82.8,14879.0,27624.0,1.0,0.1,,,,,0,0,,0,1,0,0,0,1,0,0,0,0,CAAR,0,0,2.0,1.0,11159250.0,18.07600582372005,17.37,35.6297416,7.6523636,مسكيانة,04024,292,7
Sabra,Tlemcen,Commune,24622,28555,1.49,37284,28555.0,42.5,93.6,15846.0,34898.0,1.0,0.1,1.0,1.0,0.0,0.0,0,0,,0,1,0,1,0,0,0,0,0,0,ALLIANCE,0,0,2.0,1.0,11884500.000000002,18.438395610099327,17.37,34.8255654,-1.5368414,صبرة,13006,292,6
Tébessa,Tébessa,Province Capital,161440,196537,1.99,280043,,43.0,88.9,376594.0,10908.0,1.0,0.1,203.0,88.0,113.0,2.0,1,1,ZI Tébessa,2,11,1,2,1,2,3,1,1,0,SAA|ALLIANCE|AXA|CAAR|CAAT|CASH|CIAR,1,2,18.0,5.0,282445500.0,20.0,17.36,35.4117209,8.0755254,تبسة,12001,294,1
Dely Ibrahim,El Djazaïr [Algiers],Commune,30576,35230,1.43,45464,,48.0,93.35,29822.5,57347.0,4.0,0.25,,,,,0,0,,0,6,0,2,1,0,0,1,2,0,ALLIANCE|AXA|CASH|CIAR,0,0,3.0,0.0,22366875.0,11.17618345842403,17.35,36.7567281,2.962446,دالي ابراهيم,16023,295,22
Oued El Ma,Batna,Commune,16947,20288,1.82,28048,7236.0,40.1,94.9,11247.0,26618.0,1.0,0.1,,,,,0,0,,0,0,0,0,0,0,0,0,0,0,,0,0,1.0,1.0,8435250.0,16.71488927343097,17.21,35.6696259,5.952935,واد الماء,05033,296,6
Beni Mester,Tlemcen,Commune,15671,18651,1.76,25515,18651.0,42.6,94.1,10869.0,24010.0,1.0,0.1,1.0,1.0,0.0,0.0,0,0,,0,0,0,0,0,0,0,0,0,0,,0,0,1.0,1.0,8151750.000000001,16.573231218362334,17.21,34.8639575,-1.4356042,بني مستار,13002,296,7
Seriana,Batna,Commune,11714,15445,2.8,25406,10225.0,47.6,91.2,12093.0,23170.0,1.0,0.1,9.0,9.0,0.0,0.0,0,0,,0,0,0,0,0,0,0,0,0,0,,0,0,1.0,1.0,9069750.0,17.031933491917908,17.21,35.7161562,6.127064,سريانة,05005,296,6
El Aouinet,Tébessa,Commune,19385,21682,1.13,26524,196537.0,45.0,94.2,11936.0,24986.0,1.0,0.1,18.0,16.0,2.0,0.0,0,0,,0,0,0,0,0,0,0,0,0,0,,0,0,1.0,1.0,8952000.000000002,16.9730966806857,17.21,35.8685842,7.8693435,العوينات,12005,296,2
Dahmouni,Tiaret,Commune,17392,20380,1.6,27111,7569.0,45.1,69.3,12227.0,18788.0,1.0,0.1,24.0,11.0,13.0,0.0,0,0,,0,0,0,0,0,0,0,0,0,0,,0,0,1.0,1.0,9170250.0,17.08215089768298,17.21,35.4166137,1.4674473,دحموني,14013,296,7
Aïn Oussara,Djelfa,Commune,82597,101239,2.06,146029,,40.6,70.7,10077.0,19389.0,1.0,0.1,,,,,0,0,,0,3,0,1,0,0,0,0,2,0,ALLIANCE|CIAR,0,0,9.0,6.0,7557750.0,53.7764238648852,17.2,,,,,301,14
Souahlia,Tlemcen,Commune,20823,22245,0.66,25054,22245.0,42.2,90.8,10573.0,22749.0,1.0,0.1,,,,,0,0,,0,0,0,0,0,0,0,0,0,0,,0,0,1.0,1.0,7929750.0,16.462303217567854,17.04,35.0438386,-1.9086172,تونان,13029,302,8
El Ghrous,Biskra,Commune,12846,16408,2.48,25490,35032.0,41.0,94.5,10451.0,24088.0,1.0,0.1,1.0,0.0,1.0,0.0,0,0,,0,0,0,0,0,0,0,0,0,0,,0,0,1.0,1.0,7838250.000000001,16.41658289291607,17.04,34.7175474,5.0903931,الغروس,07031,302,8
Zaccar,Djelfa,Commune,3142,1809,-5.37,670,,40.6,70.7,10077.0,19389.0,1.0,0.1,,,,,0,0,,0,0,0,0,0,0,0,0,0,0,,0,0,0.0,0.0,7557750.0,3.7764238648852015,17.04,34.4305669,3.3213472,زكار,17010,302,15
Sigus,Oum El Bouaghi,Commune,14944,17598,1.65,23619,13112.0,43.0,91.8,10156.0,21682.0,1.0,0.1,9.0,4.0,5.0,0.0,0,0,,0,0,0,0,0,0,0,0,0,0,,0,0,1.0,1.0,7617000.0,16.306029648881026,17.04,36.1085199,6.603674,سيقوس,04006,302,8
Faidh El Botma,Djelfa,Commune,20664,32501,4.63,73439,,40.6,70.7,10077.0,19389.0,1.0,0.1,,,,,0,0,,0,0,0,0,0,0,0,0,0,0,,0,0,4.0,4.0,7557750.0,53.7764238648852,17.04,,,,,302,15
Hassi Fedoul,Djelfa,Commune,12221,13171,0.75,15071,,40.6,70.7,10077.0,19389.0,1.0,0.1,,,,,0,0,,0,0,0,0,0,0,0,0,0,0,,0,0,1.0,1.0,7557750.0,16.276423864885203,17.04,35.4392023,2.1992396,حاسي فدول,17033,302,15
Moudjebara,Djelfa,Commune,10365,14052,3.09,24302,,40.6,70.7,10077.0,19389.0,1.0,0.1,,,,,0,0,,0,0,0,0,0,0,0,0,0,0,,0,0,1.0,1.0,7557750.0,16.276423864885203,17.04,34.5040006,3.4597278,مجبرة,17002,302,15
Tadmit,Djelfa,Commune,6172,10359,5.31,26310,9954.0,38.3,91.4,10077.0,24047.0,1.0,0.1,,,,,0,0,,0,0,0,0,0,0,0,0,0,0,,0,0,1.0,1.0,7557750.0,16.276423864885203,17.04,34.2833322,2.9745782,تعضميت,17036,302,15
Oued El Abtal,Mascara,Commune,19184,21278,1.04,25640,15170.0,41.2,81.8,10564.0,20974.0,1.0,0.1,3.0,3.0,0.0,0.0,0,0,,0,0,0,0,0,0,0,0,0,0,,0,0,1.0,1.0,7923000.000000001,16.458930406732886,17.04,35.3924,0.6894,واد الأبطال,29010,302,5
Sidi Ladjel,Djelfa,Commune,11776,13661,1.5,17847,,40.6,70.7,10077.0,19389.0,1.0,0.1,,,,,0,0,,0,0,0,0,0,0,0,0,0,0,,0,0,1.0,1.0,7557750.0,16.276423864885203,17.04,35.4433626,2.4941109,سيدي لعجال,17019,302,15
El Guedid,Djelfa,Commune,11059,12833,1.5,16774,,40.6,70.7,10077.0,19389.0,1.0,0.1,,,,,0,0,,0,0,0,0,0,0,0,0,0,0,,0,0,1.0,1.0,7557750.0,16.276423864885203,17.04,34.646898,2.6057338,القديد,17003,302,15
Didouche Mourad,Constantine,Commune,33266,44951,3.06,77280,28411.0,44.5,94.9,34390.0,73339.0,4.0,0.25,314.0,125.0,185.0,4.0,1,1,ZI,1,0,0,0,0,0,0,0,0,0,,1,1,5.0,4.0,25792500.0,18.577576991434,16.96,36.4639526,6.5927385,ديدوش مراد,25005,313,6
Djanet,Illizi,Commune,9699,14655,4.21,30807,290645.0,49.5,94.4,15249.0,29082.0,4.0,0.25,4.0,1.0,3.0,0.0,0,0,,0,1,0,0,0,0,0,0,1,0,CIAR,0,0,2.0,1.0,11436750.0,18.21466582471315,16.56,24.4821,9.4839,جانت,33002,314,2
Beni Slimane,Médéa,Commune,31588,33779,0.67,38113,9661.0,42.1,92.0,16046.0,35064.0,2.0,0.15,10.0,6.0,4.0,0.0,0,0,,0,1,1,0,0,0,0,0,0,0,SAA,0,0,2.0,1.0,12034500.000000002,18.51334696198749,16.56,36.2181313,3.2412217,بني سليمان,26046,314,3
El Abiodh Sidi Cheikh,El Bayadh,Commune,20675,24949,1.9,34990,1750.0,42.6,79.6,14906.0,27852.0,2.0,0.15,,,,,0,0,,0,1,0,0,0,0,0,0,1,0,CIAR,0,0,2.0,1.0,11179500.000000002,18.08612425622495,16.56,32.8311,0.5383,الابيض سيدي الشيخ,32007,314,2
Gouraya,Tipaza,Commune,17165,20144,1.61,26869,83254.0,45.0,94.7,12091.0,25445.0,4.0,0.25,97.0,34.0,63.0,0.0,0,0,,0,0,0,0,0,0,0,0,0,0,,0,0,1.0,1.0,9068250.000000002,17.031183978399024,16.44,36.5041,1.9061,ڨورايا,42014,317,7
Djinet,Boumerdès,Commune,20022,21966,0.93,25953,20705.0,44.4,91.0,11523.0,23617.0,4.0,0.25,17.0,11.0,5.0,1.0,0,0,,0,0,0,0,0,0,0,0,0,0,,0,0,1.0,1.0,8642250.0,16.81832213903664,16.44,36.8148,3.7244,جنات,35009,317,12
Dahra,Chlef,Commune,21284,23802,1.12,29109,23802.0,39.6,79.2,11527.0,23054.0,4.0,0.25,1.0,1.0,0.0,0.0,0,0,,0,0,0,0,0,0,0,0,0,0,,0,0,1.0,1.0,8645250.0,16.8198211660744,16.44,36.2551398,0.8432006,الظهرة,02017,317,14
Bouzeghaia,Chlef,Commune,20268,22590,1.09,27460,22590.0,44.4,92.2,12192.0,25318.0,4.0,0.25,1.0,1.0,0.0,0.0,0,0,,0,0,0,0,0,0,0,0,0,0,,0,0,1.0,1.0,9144000.0,17.06903441110255,16.44,,,,,317,14
Beni Rached,Chlef,Commune,21069,23449,1.08,28431,23449.0,37.9,93.4,10775.0,26555.0,4.0,0.25,8.0,3.0,5.0,0.0,0,0,,0,0,0,0,0,0,0,0,0,0,,0,0,1.0,1.0,8081250.0,16.5380040829749,16.44,36.2930145,1.4611361,بني راشد,02013,317,14
Leghata,Boumerdès,Commune,11884,13692,1.43,17667,,45.7,92.35,12314.0,23706.0,4.0,0.25,,,,,0,0,,0,0,0,0,0,0,0,0,0,0,,0,0,1.0,1.0,9235500.0,17.114754735754328,16.44,,,,,317,12
Boudouaou El Bahri,Boumerdès,Commune,10512,14209,3.06,24442,22408.0,45.7,94.3,11170.0,23049.0,4.0,0.25,91.0,75.0,12.0,4.0,0,0,,0,0,0,0,0,0,0,0,0,0,,0,0,1.0,1.0,8377500.0,16.686033002954026,16.44,36.7114,3.3865,بودواو البحرى,35032,317,12
Maoussa,Mascara,Commune,18104,20719,1.36,26414,7379.0,44.0,79.5,11622.0,20999.0,2.0,0.15,9.0,9.0,0.0,0.0,0,0,,0,0,0,0,0,0,0,0,0,0,,0,0,1.0,1.0,8716500.0,16.855423058221277,16.31,35.314,0.2472,ماوسة,29005,324,6
Beni Haoua,Chlef,Commune,17602,20853,1.71,28292,20853.0,42.0,81.8,11883.0,23143.0,2.0,0.15,1.0,1.0,0.0,0.0,0,0,,0,0,0,0,0,0,0,0,0,0,,0,0,1.0,1.0,8912250.0,16.95323457243533,16.31,36.4938241,1.5198873,بني حواء,02007,324,17
Sidi Kada,Mascara,Commune,17843,20614,1.45,26731,28823.0,41.9,92.2,11200.0,24646.0,2.0,0.15,6.0,6.0,0.0,0.0,0,0,,0,0,0,0,0,0,0,0,0,0,,0,0,1.0,1.0,8400000.0,16.69727570573725,16.31,35.2692,0.3488,سيدي قادة,29008,324,6
Boumahra Ahmed,Guelma,Commune,15273,17834,1.56,23574,9397.0,47.8,91.0,11268.0,21452.0,2.0,0.15,20.0,12.0,8.0,0.0,0,0,,0,0,0,0,0,0,0,0,0,0,,0,0,1.0,1.0,8451000.0,16.722759165379227,16.31,36.4588487,7.5044774,بومهرة أحمد,24031,324,3
Bordj Bou Naama,Tissemsilt,Commune,18394,20864,1.27,26176,10839.0,43.8,90.2,11465.0,23611.0,2.0,0.15,,,,,0,0,,0,0,0,0,0,0,0,0,0,0,,0,0,1.0,1.0,8598750.0,16.79658624698907,16.31,35.7855,1.6177,برج بونعامة,38002,324,4
Belkheir,Guelma,Commune,14979,17649,1.65,23711,16391.0,45.3,95.7,10741.0,22691.0,2.0,0.15,6.0,4.0,2.0,0.0,0,0,,0,0,0,0,0,0,0,0,0,0,,0,0,1.0,1.0,8055750.000000001,16.52526235315391,16.31,,,,,324,3
Ouzellaguen,Béjaïa,Commune,21547,22719,0.53,24992,29842.0,46.8,94.5,11696.0,23617.0,2.0,0.15,38.0,38.0,0.0,0.0,0,0,,0,0,0,0,0,0,0,0,0,0,,0,0,1.0,1.0,8772000.000000002,16.8831550584199,16.31,,,,,324,5
El Amria,Aïn Témouchent,Commune,19632,21790,1.05,26290,7512.0,43.9,90.7,11541.0,23845.0,2.0,0.15,2.0,1.0,1.0,0.0,0,0,,0,0,0,0,0,0,0,0,0,0,,0,0,1.0,1.0,8655750.000000002,16.82506776070657,16.31,35.4607,-1.0162,العامرية,46019,324,4
Mezloug,Sétif,Commune,13373,16976,2.41,26081,27175.0,43.4,93.4,11319.0,24360.0,2.0,0.15,40.0,36.0,1.0,3.0,0,0,,0,0,0,0,0,0,0,0,0,0,,0,0,1.0,1.0,8489250.0,16.74187176011071,16.31,36.1050372,5.2373002,مزلوق,19033,324,8
Ben Badis,Sidi Bel Abbès,Commune,17617,20346,1.45,26367,11654.0,45.7,91.5,12050.0,24126.0,2.0,0.15,23.0,17.0,6.0,0.0,0,0,,0,0,0,0,0,0,0,0,0,0,,0,0,1.0,1.0,9037500.0,17.015818951261952,16.31,34.92614,-0.9757259,ابن باديس,22045,324,6
Maadid,M'Sila,Commune,22274,24168,0.82,27992,8074.0,41.6,89.8,11645.0,25137.0,2.0,0.15,5.0,5.0,0.0,0.0,0,0,,0,0,0,0,0,0,0,0,0,0,,0,0,1.0,1.0,8733750.0,16.864042463688417,16.31,35.7973219,4.6873829,المعاضيد,28002,324,15
Ouarizane,Relizane,Commune,18087,20069,1.05,24200,5138.0,44.3,91.5,10721.0,22143.0,2.0,0.15,,,,,0,0,,0,0,0,0,0,0,0,0,0,0,,0,0,1.0,1.0,8040750.000000001,16.517767217965094,16.31,35.9813,0.8981,ﻭﺍﺭﻳﺯﺍﻥ,48021,324,7
Bouteldja,El Tarf,Commune,15275,17738,1.51,23215,34378.0,48.4,93.2,11236.0,21636.0,2.0,0.15,1.0,1.0,0.0,0.0,0,0,,0,0,0,0,0,0,0,0,0,0,,0,0,1.0,1.0,8427000.000000002,16.71076694907712,16.31,36.4401,8.1052,بوثلجة,36008,324,5
Bir Haddada,Sétif,Commune,18233,20860,1.36,26579,48487.0,42.3,90.0,11243.0,23921.0,2.0,0.15,3.0,2.0,1.0,0.0,0,0,,0,0,0,0,0,0,0,0,0,0,,0,0,1.0,1.0,8432250.0,16.713390246393207,16.31,35.9625421,5.3953788,بئر حدادة,19034,324,8
Sour,Mostaganem,Commune,20625,22673,0.95,26885,27606.0,41.2,83.3,11077.0,22395.0,2.0,0.15,4.0,2.0,2.0,0.0,0,0,,0,0,0,0,0,0,0,0,0,0,,0,0,1.0,1.0,8307750.0,16.651180624326027,16.31,36.0006026,0.3356516,صور,27008,324,9
El Ouricia,Sétif,Commune,14507,18087,2.23,26902,30987.0,41.6,95.0,11191.0,25557.0,2.0,0.15,12.0,10.0,2.0,0.0,0,0,,0,0,0,0,0,0,0,0,0,0,,0,0,1.0,1.0,8393250.000000002,16.693902894902283,16.31,36.2706726,5.3148483,الأورسية,19037,324,8
Tamlouka,Guelma,Commune,16640,18894,1.28,23748,9492.0,45.1,96.8,10710.0,22988.0,2.0,0.15,5.0,5.0,0.0,0.0,0,0,,0,0,0,0,0,0,0,0,0,0,,0,0,1.0,1.0,8032500.0,16.513644893611247,16.31,36.1569512,7.1315431,تاملوكة,24005,324,3
Hassi Mefsoukh,Oran,Commune,7656,11856,4.47,26051,14219.0,44.2,93.2,11515.0,24280.0,2.0,0.15,,,,,0,0,,0,0,0,0,0,0,0,0,0,0,,0,0,1.0,1.0,8636250.0,16.81532408496111,16.31,35.7376,-0.3735,حاسي مفسوخ,31021,324,12
El Hachimia,Bouira,Commune,13482,17322,2.54,27197,12486.0,43.0,92.3,11695.0,25103.0,2.0,0.15,41.0,34.0,7.0,0.0,0,0,,0,0,0,0,0,0,0,0,0,0,,0,0,1.0,1.0,8771250.0,16.882780301660457,16.31,36.2227385,3.7198058,الھاشمية,10015,324,5
Hassi Ben Okba,Oran,Commune,9435,12906,3.18,22682,22898.0,49.2,91.0,11160.0,20641.0,2.0,0.15,7.0,7.0,0.0,0.0,0,0,,0,0,0,0,0,0,0,0,0,0,,0,0,1.0,1.0,8370000.0,16.682285435359617,16.31,35.664,-0.4669,حاسي بن عقبة,31019,324,12
Tablat,Médéa,Commune,28276,27919,-0.13,27288,4882.0,42.7,91.7,11652.0,25023.0,2.0,0.15,11.0,6.0,5.0,0.0,0,0,,0,0,0,0,0,0,0,0,0,0,,0,0,1.0,1.0,8739000.0,16.866665761004505,16.31,36.4231476,3.2734726,تابلاط,26052,324,4
Makouda,Tizi Ouzou,Commune,22548,23388,0.37,24980,3775.0,47.5,95.0,11866.0,23731.0,2.0,0.15,196.0,196.0,0.0,0.0,0,0,,0,0,0,0,0,0,0,0,0,0,,0,0,1.0,1.0,8899500.000000002,16.94686370752484,16.31,36.7937385,4.0162747,ماكودة,15009,324,4
Talaifacene,Sétif,Commune,17555,20337,1.48,26502,21385.0,43.2,87.0,11449.0,23057.0,2.0,0.15,,,,,0,0,,0,0,0,0,0,0,0,0,0,0,,0,0,1.0,1.0,8586750.0,16.790590138838017,16.31,35.9637883,5.6440518,تالة إيفاسن,19042,324,8
Emdjez Edchich,Skikda,Commune,16756,20079,1.83,27808,20079.0,41.4,94.6,11513.0,26306.0,2.0,0.15,75.0,74.0,1.0,0.0,0,0,,0,0,0,0,0,0,0,0,0,0,,0,0,1.0,1.0,8634750.0,16.81457457144223,16.31,36.7047297,6.7961489,مجاز الدشيش,21020,324,19
Tizi N'Bechar,Sétif,Commune,18719,21086,1.2,26126,17667.0,43.9,91.7,11469.0,23958.0,2.0,0.15,12.0,12.0,0.0,0.0,0,0,,0,0,0,0,0,0,0,0,0,0,,0,0,1.0,1.0,8601750.0,16.798085274026832,16.31,,,,,324,8
Sidi Saada,Relizane,Commune,14479,17558,1.95,24843,28962.0,44.6,95.4,11080.0,23700.0,2.0,0.15,,,,,0,0,,0,0,0,0,0,0,0,0,0,0,,0,0,1.0,1.0,8310000.0,16.65230489460435,16.31,35.6227,0.206,سيدي سعادة,48004,324,7
El Omaria,Médéa,Commune,17661,20705,1.6,27567,2671.0,42.0,92.5,11578.0,25499.0,2.0,0.15,23.0,20.0,3.0,0.0,0,0,,0,0,0,0,0,0,0,0,0,0,,0,0,1.0,1.0,8683500.0,16.838933760805883,16.31,36.3025098,2.9355786,العمارية,26007,324,4
El Bayadh,El Bayadh,Province Capital,64632,91632,3.55,171762,201263.0,40.1,94.1,158295.0,371460.0,2.0,0.15,51.0,31.0,20.0,0.0,0,0,,1,3,1,0,0,0,0,0,2,0,SAA|CIAR,1,1,11.0,7.0,118721250.0,14.0,16.3,33.6146,1.019,الـبـيـض,32001,351,3
Tamanrasset,Tamanrasset,Province Capital,72741,92635,2.45,143142,,44.9,87.2,125020.0,11566.0,2.0,0.15,2110.0,2095.0,12.0,3.0,0,0,,1,3,0,1,0,0,1,0,1,0,ALLIANCE|CAAT|CIAR,1,1,9.0,5.0,93765000.0,14.0,16.3,,,,,351,3
Ouled Ben Abdelkader,Chlef,Commune,17385,19952,1.39,25565,19952.0,41.3,92.5,10558.0,23648.0,4.0,0.25,11.0,6.0,5.0,0.0,0,0,,0,0,0,0,0,0,0,0,0,0,,0,0,1.0,1.0,7918500.0,16.45668186617624,16.27,35.9670371,1.192049,أولاد بن عبد القادر,02030,353,18
Damous,Tipaza,Commune,14432,17111,1.72,23248,11062.0,43.3,92.3,10066.0,21458.0,4.0,0.25,41.0,9.0,31.0,1.0,0,0,,0,0,0,0,0,0,0,0,0,0,,0,0,1.0,1.0,7549500.0,16.272301540531352,16.27,36.4865,1.7056,الداموس,42023,353,8
Ahmar El Aïn,Tipaza,Commune,25633,29566,1.44,38228,,45.25,92.6,9925.5,19407.0,4.0,0.25,,,,,0,0,,0,0,0,0,0,0,0,0,0,0,,0,0,2.0,2.0,7444125.000000001,28.71964821582992,16.27,,,,,353,8
Merad,Tipaza,Commune,18104,19916,0.96,23647,,45.25,92.6,9925.5,19407.0,4.0,0.25,,,,,0,0,,0,0,0,0,0,0,0,0,0,0,,0,0,1.0,1.0,7444125.000000001,16.219648215829917,16.27,,,,,353,8
Maghnia,Tlemcen,Commune,96302,114634,1.76,156868,114634.0,44.7,91.6,70120.0,143691.0,1.0,0.1,11.0,9.0,2.0,0.0,0,0,,1,2,0,1,0,1,0,0,0,0,ALLIANCE|CAAR,1,1,10.0,7.0,52590000.0,14.0,16.24,34.8481781,-1.780215,مغنية,13027,357,9
Aïn Boucif,Médéa,Commune,24434,26042,0.64,29208,8873.0,42.7,68.9,12472.0,20124.0,1.0,0.1,2.0,2.0,0.0,0.0,0,0,,0,0,0,0,0,0,0,0,0,0,,0,0,1.0,1.0,9354000.0,17.17396630374598,16.2,35.8347645,3.0031194,عين بوسيف,26004,358,6
Aïn Soltane,Souk Ahras,Commune,3266,3091,-0.55,2799,80359.0,43.9,94.1,12426.0,26635.0,1.0,0.1,,,,,0,0,,0,0,0,0,0,0,0,0,0,0,,0,0,0.0,0.0,9319500.000000002,4.656727492811703,16.2,34.9675528,0.3012402,عين السلطان,20016,358,3
Taleb Larbi,El Oued,Commune,3582,7074,7.04,24079,4978.0,38.0,90.5,9150.0,21791.0,0.0,0.0,2.0,1.0,1.0,0.0,0,0,,0,0,0,0,0,0,0,0,0,0,,0,0,1.0,1.0,6862500.0,15.92902434888356,16.19,33.6615,7.5174,طالب العربي,39014,360,9
Megarine,Ouargla,Commune,10996,13751,2.26,20564,39168.0,39.9,81.2,8205.0,16698.0,0.0,0.0,,,,,0,0,,0,0,0,0,0,0,0,0,0,0,,0,0,1.0,1.0,6153750.0,15.574879211211975,16.19,33.1272,6.0947,المقارين,30019,360,11
Abalessa,Tamanrasset,Commune,6484,9163,3.52,17076,6649.0,50.0,94.5,8538.0,16137.0,0.0,0.0,7.0,6.0,0.0,1.0,0,0,,0,0,0,0,0,0,0,0,0,0,,0,0,1.0,1.0,6403500.000000001,15.699673212105772,16.19,21.984742,2.2077874,أبلسة,11002,360,4
El Malah,Aïn Témouchent,Commune,16162,18287,1.24,22841,21790.0,45.2,91.7,10324.0,20945.0,2.0,0.15,6.0,5.0,0.0,1.0,0,0,,0,0,0,0,0,0,0,0,0,0,,0,0,1.0,1.0,7743000.000000001,16.368988784467085,16.14,35.3286,-1.0931,المالح,46014,363,5
Haizer,Bouira,Commune,15388,17719,1.42,22840,20532.0,43.5,92.5,9935.0,21127.0,2.0,0.15,84.0,78.0,5.0,1.0,0,0,,0,0,0,0,0,0,0,0,0,0,,0,0,1.0,1.0,7451250.0,16.223208405044605,16.14,36.4068708,3.9487242,حيزر,10012,363,6
Djebel Aissa Mimoun,Tizi Ouzou,Commune,19227,20268,0.53,22286,19027.0,46.5,94.5,10363.0,21060.0,2.0,0.15,,,,,0,0,,0,0,0,0,0,0,0,0,0,0,,0,0,1.0,1.0,7772250.0,16.38360429808528,16.14,,,,,363,5
Sidi Boubekeur,Saïda,Commune,17131,19282,1.19,23857,12468.0,44.5,92.1,10616.0,21972.0,2.0,0.15,,,,,0,0,,0,0,0,0,0,0,0,0,0,0,,0,0,1.0,1.0,7962000.000000001,16.478417758223806,16.14,35.0307334,0.0453185,سيدي بوبكر,20009,363,4
Zeghaia,Mila,Commune,15751,17638,1.14,21622,17638.0,46.9,96.3,10141.0,20822.0,2.0,0.15,146.0,135.0,10.0,1.0,0,0,,0,0,0,0,0,0,0,0,0,0,,0,0,1.0,1.0,7605750.0,16.300408297489415,16.14,36.4047,6.1716,زغاية,43028,363,3
Hammam Debagh,Guelma,Commune,13412,16391,2.03,23518,3244.0,44.8,93.3,10536.0,21942.0,2.0,0.15,10.0,9.0,0.0,1.0,0,0,,0,0,0,0,0,0,0,0,0,0,,0,0,1.0,1.0,7902000.000000001,16.44843721746854,16.14,,,,,363,6
Mers El Kébir,Oran,Commune,14167,16970,1.82,23486,20235.0,45.5,88.2,10686.0,20715.0,2.0,0.15,1.0,1.0,0.0,0.0,0,0,,0,0,0,0,0,0,0,0,0,0,,0,0,1.0,1.0,8014500.000000001,16.504650731384665,16.14,35.6751,-0.7196,المرسى الكبير,31015,363,14
El Matmar,Relizane,Commune,14533,17442,1.84,24223,11659.0,43.2,87.0,10464.0,21074.0,2.0,0.15,,,,,0,0,,0,0,0,0,0,0,0,0,0,0,,0,0,1.0,1.0,7848000.000000001,16.421454730788803,16.14,35.6673,0.4614,المطمار,48017,363,9
Souaflia,Mostaganem,Commune,14356,17223,1.84,23903,22016.0,44.5,92.6,10637.0,22134.0,2.0,0.15,25.0,5.0,20.0,0.0,0,0,,0,0,0,0,0,0,0,0,0,0,,0,0,1.0,1.0,7977750.0,16.486287650172066,16.14,35.8616131,0.3271866,سوافلية,27024,363,10
Brezina,El Bayadh,Commune,8536,12468,3.86,24659,6949.0,43.3,89.9,10677.0,22168.0,2.0,0.15,,,,,0,0,,0,0,0,0,0,0,0,0,0,0,,0,0,1.0,1.0,8007750.0,16.501277920549697,16.14,33.0317,1.2607,بريزينة,32004,363,4
Touggourt,Ouargla,Commune,32940,39409,1.81,54421,7509.0,41.9,90.3,22802.0,49142.0,0.0,0.0,9.0,6.0,3.0,0.0,0,0,,0,4,0,1,0,1,0,0,1,1,ALLIANCE|CAAR|CIAR|TRUST,0,0,3.0,0.0,17101500.000000004,8.545203628769713,16.12,33.0351,6.0672,توقرت,30013,373,12
Sidi Ghiles,Tipaza,Commune,12731,15281,1.84,21226,9555.0,46.1,89.7,9785.0,19040.0,4.0,0.25,35.0,30.0,5.0,0.0,0,0,,0,0,0,0,0,0,0,0,0,0,,0,0,1.0,1.0,7338750.0,16.166994891128482,16.09,36.5196,2.1231,سيدي غيلاس,42032,374,11
Sidi Daoud,Boumerdès,Commune,14889,16900,1.27,21229,21439.0,45.9,94.5,9744.0,20061.0,4.0,0.25,68.0,16.0,52.0,0.0,0,0,,0,0,0,0,0,0,0,0,0,0,,0,0,1.0,1.0,7308000.000000001,16.151629863991406,16.09,36.7884,3.8507,سيدي داود,35007,374,15
Terrai Bainen,Mila,Commune,20685,23299,1.2,28865,,43.5,93.85,9626.0,20263.0,2.0,0.15,,,,,0,0,,0,0,0,0,0,0,0,0,0,0,,0,0,1.0,1.0,7219500.0,16.10740856637739,15.96,36.4688,6.1221,ترعى بينان,43023,376,4
Aït Yahia Moussa,Tizi Ouzou,Commune,19904,20426,0.26,21400,5398.0,45.8,95.3,9801.0,20394.0,2.0,0.15,22.0,21.0,1.0,0.0,0,0,,0,0,0,0,0,0,0,0,0,0,,0,0,1.0,1.0,7350750.0,16.172990999279534,15.96,36.6423405,3.8041329,أيت يحي موسى,15056,376,6
Bouhatem,Mila,Commune,19193,20277,0.55,22385,20277.0,43.0,93.6,9626.0,20952.0,2.0,0.15,1.0,0.0,1.0,0.0,0,0,,0,0,0,0,0,0,0,0,0,0,,0,0,1.0,1.0,7219500.0,16.10740856637739,15.96,36.241,6.015,بوحاتم,43014,376,4
Ouled Khalouf,Mila,Commune,11058,11396,0.3,12031,,43.5,93.85,9626.0,20263.0,2.0,0.15,,,,,0,0,,0,0,0,0,0,0,0,0,0,0,,0,0,0.0,0.0,7219500.0,3.607408566377389,15.96,35.9947,6.1386,أولاد خلوف,43012,376,4
El Mechira,Mila,Commune,11683,12905,1.0,15436,,43.5,93.85,9626.0,20263.0,2.0,0.15,,,,,0,0,,0,0,0,0,0,0,0,0,0,0,,0,0,1.0,1.0,7219500.0,16.10740856637739,15.96,35.948,6.232,المشيرة,43026,376,4
Aïn El Hammam,Tizi Ouzou,Commune,20118,20401,0.14,20920,7626.0,47.0,94.8,9832.0,19832.0,2.0,0.15,26.0,23.0,3.0,0.0,0,0,,0,0,0,0,0,0,0,0,0,0,,0,0,1.0,1.0,7374000.0,16.1846084588222,15.96,36.5725501,4.246757,عين الحمام,15002,376,6
Tessala Lemtaï,Mila,Commune,13849,15676,1.25,19593,,43.5,93.85,9626.0,20263.0,2.0,0.15,,,,,0,0,,0,0,0,0,0,0,0,0,0,0,,0,0,1.0,1.0,7219500.0,16.10740856637739,15.96,,,,,376,4
Chigara,Mila,Commune,13609,14661,0.75,16764,,43.5,93.85,9626.0,20263.0,2.0,0.15,,,,,0,0,,0,0,0,0,0,0,0,0,0,0,,0,0,1.0,1.0,7219500.0,16.10740856637739,15.96,36.4975,6.221,الشيقارة,43032,376,4
M'Naguer,Ouargla,Commune,11243,14179,2.35,21529,12652.0,35.8,93.7,7707.0,20173.0,0.0,0.0,,,,,0,0,,0,0,0,0,0,0,0,0,0,0,,0,0,1.0,1.0,5780250.0,15.388250345010446,15.59,,,,,384,13
Nakhla,El Oued,Commune,9491,12652,2.92,21227,31784.0,35.2,86.1,7472.0,18276.0,0.0,0.0,12.0,7.0,5.0,0.0,0,0,,0,0,0,0,0,0,0,0,0,0,,0,0,1.0,1.0,5604000.0,15.300182506541852,15.59,33.2123,6.9516,النخلة,39005,384,10
Ouled Yaïch,Blida,Commune,55719,87131,4.57,194840,37461.0,44.9,93.9,87483.0,182955.0,4.0,0.25,819.0,531.0,187.0,101.0,0,0,,1,2,1,0,0,0,0,0,1,0,SAA|CIAR,1,1,12.0,9.0,65612250.00000001,14.0,15.49,36.4852123,2.8325741,اولاد يعيش,09007,386,15
Labiod Medjadja,Chlef,Commune,13920,14733,0.57,16318,,40.85,92.3,12342.0,26555.0,4.0,0.25,,,,,0,0,,0,0,0,0,0,0,0,0,0,0,,0,0,1.0,1.0,9256500.0,17.125247925018673,15.42,36.2682804,1.3325618,الأبيض مجاجة,02028,387,19
Beni Bouateb,Chlef,Commune,2551,2069,-2.07,1419,,40.85,92.3,12342.0,26555.0,4.0,0.25,,,,,0,0,,0,0,0,0,0,0,0,0,0,0,,0,0,0.0,0.0,9256500.0,4.625247925018673,15.42,35.9895844,1.5589402,بني بوعتاب,02035,387,19
El Bordj,Mascara,Commune,17874,20711,1.48,27000,9690.0,46.2,81.5,12474.0,22005.0,4.0,0.25,77.0,74.0,3.0,0.0,0,0,,0,0,0,0,0,0,0,0,0,0,,0,0,1.0,1.0,9355500.0,17.17471581726486,15.42,35.4528,0.3021,البرج,29017,387,8
Oued Goussine,Chlef,Commune,5439,6453,1.72,8778,,40.85,92.3,12342.0,26555.0,4.0,0.25,,,,,0,0,,0,0,0,0,0,0,0,0,0,0,,0,0,0.0,0.0,9256500.0,4.625247925018673,15.42,36.4949721,1.3928579,واد ڨوسين,02016,387,19
Harenfa,Chlef,Commune,16356,17799,0.85,20725,,40.85,92.3,12342.0,26555.0,4.0,0.25,,,,,0,0,,0,0,0,0,0,0,0,0,0,0,,0,0,1.0,1.0,9256500.0,17.125247925018673,15.42,,,,,387,19
Aïn Soltane,Aïn Defla,Commune,18541,21565,1.52,28305,80359.0,43.9,94.1,12426.0,26635.0,2.5,0.175,,,,,0,0,,0,0,0,0,0,0,0,0,0,0,,0,0,1.0,1.0,9319500.000000002,17.1567274928117,15.42,34.9675528,0.3012402,عين السلطان,20016,387,6
Aïn Soltane,Saïda,Commune,6068,6920,1.32,8766,80359.0,43.9,94.1,12426.0,26635.0,2.0,0.15,,,,,0,0,,0,0,0,0,0,0,0,0,0,0,,0,0,0.0,0.0,9319500.000000002,4.656727492811703,15.29,34.9675528,0.3012402,عين السلطان,20016,393,5
Zahana,Mascara,Commune,18839,21850,1.49,28534,7785.0,43.4,86.2,12384.0,24596.0,2.0,0.15,33.0,16.0,17.0,0.0,0,0,,0,0,0,0,0,0,0,0,0,0,,0,0,1.0,1.0,9288000.0,17.140987708915187,15.29,35.4551,-0.412,زھانة,29030,393,9
Ibn Ziad,Constantine,Commune,15514,18861,1.97,26809,10624.0,46.4,94.0,12439.0,25200.0,2.0,0.15,43.0,20.0,23.0,0.0,0,0,,0,0,0,0,0,0,0,0,0,0,,0,0,1.0,1.0,9329250.0,17.16159933068443,15.29,36.3691447,6.3523267,ابن زياد,25012,393,7
Aïn Berda,Annaba,Commune,17446,20611,1.68,27824,4760.0,44.5,89.1,12382.0,24791.0,2.0,0.15,32.0,9.0,18.0,5.0,0,0,,0,0,0,0,0,0,0,0,0,0,,0,0,1.0,1.0,9286500.0,17.140238195396307,15.29,36.6718947,7.5182507,عين الباردة,23009,393,5
Negrine,Tébessa,Commune,5891,9445,4.83,22092,17797.0,38.2,88.9,8439.0,19640.0,1.0,0.1,7.0,4.0,3.0,0.0,0,0,,0,0,0,0,0,0,0,0,0,0,,0,0,1.0,1.0,6329250.000000001,15.662572292921128,15.15,34.485828,7.5028466,نقرين,12009,397,3
Hamadia,Tiaret,Commune,15357,16463,0.7,18658,30484.0,47.4,91.4,8844.0,17053.0,1.0,0.1,13.0,8.0,4.0,1.0,0,0,,0,0,0,0,0,0,0,0,0,0,,0,0,1.0,1.0,6633000.000000001,15.814348780494663,15.15,35.4612984,1.8652296,الحمادية,14035,397,8
Oued Taga,Batna,Commune,16154,18116,1.15,22267,5478.0,37.3,93.6,8306.0,20842.0,1.0,0.1,47.0,47.0,0.0,0.0,0,0,,0,0,0,0,0,0,0,0,0,0,,0,0,1.0,1.0,6229500.0,15.6127296439155,15.15,35.4185955,6.2379494,وادي الطاقة,05048,397,8
Ouled Sellam,Batna,Commune,17866,19635,0.95,23272,14327.0,38.4,86.2,8936.0,20060.0,1.0,0.1,2.0,1.0,1.0,0.0,0,0,,0,0,0,0,0,0,0,0,0,0,,0,0,1.0,1.0,6702000.0,15.84882640236322,15.15,,,,,397,8
Bou Hanifia,Mascara,Commune,16953,18576,0.92,21899,20719.0,39.9,84.1,8738.0,18417.0,1.0,0.1,23.0,23.0,0.0,0.0,0,0,,0,0,0,0,0,0,0,0,0,0,,0,0,1.0,1.0,6553500.000000001,15.774624563993935,15.15,35.2512,-0.0494,بوحنيفية,29002,397,10
Chemora,Batna,Commune,15091,17074,1.24,21323,1724.0,41.2,86.9,8785.0,18530.0,1.0,0.1,7.0,7.0,0.0,0.0,0,0,,0,0,0,0,0,0,0,0,0,0,,0,0,1.0,1.0,6588750.0,15.792238131687656,15.15,35.6301185,6.4747992,الشمرة,05036,397,8
Aïn El Berd,Sidi Bel Abbès,Commune,13779,16013,1.51,20986,29696.0,43.4,94.7,9108.0,19874.0,1.0,0.1,13.0,3.0,10.0,0.0,0,0,,0,0,0,0,0,0,0,0,0,0,,0,0,1.0,1.0,6831000.000000001,15.913284564987045,15.15,35.3828523,-0.5661419,عين البرد,22028,397,7
Berriche,Oum El Bouaghi,Commune,16274,17609,0.79,20294,23159.0,44.8,79.5,9092.0,16134.0,1.0,0.1,,,,,0,0,,0,0,0,0,0,0,0,0,0,0,,0,0,1.0,1.0,6819000.0,15.907288456835987,15.15,35.9155816,7.3676848,بريش,04009,397,9
Medrissa,Tiaret,Commune,13719,15293,1.09,18595,33082.0,46.4,93.5,8628.0,17386.0,1.0,0.1,2.0,2.0,0.0,0.0,0,0,,0,0,0,0,0,0,0,0,0,0,,0,0,1.0,1.0,6471000.000000001,15.733401320455446,15.15,34.8949768,1.2315845,مدريسة,14008,397,8
El Kouif,Tébessa,Commune,15777,17319,0.94,20484,5899.0,43.9,77.2,8992.0,15814.0,1.0,0.1,4.0,1.0,3.0,0.0,0,0,,0,0,0,0,0,0,0,0,0,0,,0,0,1.0,1.0,6744000.0,15.869812780891907,15.15,35.499565,8.3115219,الكويف,12011,397,3
Kheneg,Laghouat,Commune,7064,10787,4.32,23112,8761.0,39.8,67.1,9199.0,15508.0,1.0,0.1,8.0,6.0,0.0,2.0,0,0,,0,0,0,0,0,0,0,0,0,0,,0,0,1.0,1.0,6899250.000000001,15.947387430096155,15.15,,,,,397,8
Aïn Djasser,Batna,Commune,13232,15704,1.73,21375,7517.0,41.7,92.0,8913.0,19665.0,1.0,0.1,10.0,10.0,0.0,0.0,0,0,,0,0,0,0,0,0,0,0,0,0,,0,0,1.0,1.0,6684750.000000001,15.84020699689608,15.15,35.8311206,5.9331296,عين جاسر,05019,397,8
Aïn Babouche,Oum El Bouaghi,Commune,14597,16129,1.0,19303,32377.0,42.2,92.0,8146.0,17759.0,1.0,0.1,,,,,0,0,,0,0,0,0,0,0,0,0,0,0,,0,0,1.0,1.0,6109500.0,15.552768562404967,15.15,35.9402286,7.1751022,عين بابوش,04008,397,9
Aïn Touila,Khenchela,Commune,14769,16845,1.32,21345,8617.0,41.5,70.5,8858.0,15048.0,1.0,0.1,10.0,10.0,0.0,0.0,0,0,,0,0,0,0,0,0,0,0,0,0,,0,0,1.0,1.0,6643500.000000001,15.819595375126836,15.15,35.3723,7.3526,عين الطويلة,40006,397,4
Baraki,El Djazaïr [Algiers],Commune,95247,116375,2.02,166907,104708.0,45.2,94.7,75442.0,158061.0,4.0,0.25,846.0,348.0,489.0,9.0,0,0,,2,3,0,1,0,1,0,0,1,0,ALLIANCE|CAAR|CIAR,1,2,11.0,6.0,56581500.00000001,14.0,15.11,36.6701186,3.0635219,براقي,16014,411,23
Azzaba,Skikda,Commune,48992,56922,1.51,74569,56922.0,46.9,95.0,34973.0,70841.0,2.0,0.15,14.0,9.0,5.0,0.0,0,0,,0,10,7,1,0,1,0,0,1,0,SAA|ALLIANCE|CAAR|CIAR,0,0,4.0,0.0,26229750.0,13.106368147924004,15.07,36.7430777,7.0997212,عزابة,21004,412,20
Bir el-Ater,Tébessa,Commune,59264,77727,2.75,126642,6074.0,39.0,82.4,49390.0,104353.0,1.0,0.1,242.0,168.0,73.0,1.0,0,1,ZA / Fonderies,1,1,0,0,0,0,0,0,1,0,CIAR,1,1,8.0,6.0,37042500.0,13.70184726975648,14.92,34.7546133,8.0234307,بئر العاتر,12002,413,5
Aïn El Kerma,Oran,Commune,6980,7530,0.76,8631,,45.9,90.55,16530.0,31606.5,2.0,0.15,,,,,0,0,,0,2,2,0,0,0,0,0,0,0,SAA,0,0,0.0,0.0,12397500.0,6.194729233556852,14.9,,,,,414,15
Ben Freha,Oran,Commune,14565,20235,3.34,36570,31386.0,45.2,93.0,16530.0,34010.0,2.0,0.15,4.0,4.0,0.0,0.0,0,0,,0,2,2,0,0,0,0,0,0,0,SAA,0,0,2.0,0.0,12397500.0,6.194729233556852,14.9,35.6283,-0.4202,بن فريحة,31020,414,15
Bordj Bou Arreridj,Bordj Bou Arreridj,Province Capital,134666,168346,2.26,251596,288461.0,42.9,95.1,336798.0,746609.0,4.0,0.25,3823.0,2659.0,1057.0,107.0,1,1,ZI / Pôle électronique,4,10,0,2,0,3,0,1,4,0,ALLIANCE|CAAR|CASH|CIAR,1,4,16.0,2.0,252598500.00000003,15.0,14.86,36.0025,4.7653,برج بوعريريج,34001,416,5
Aïn Bouyahia,Aïn Defla,Commune,13920,16213,1.54,21334,5452.0,38.0,82.5,8107.0,17601.0,4.0,0.25,9.0,0.0,9.0,0.0,0,0,,0,0,0,0,0,0,0,0,0,0,,0,0,1.0,1.0,6080250.0,15.538153048786777,14.82,36.2199,1.7661,عين بويحى,44033,417,7
Bir Ould Khelifa,Aïn Defla,Commune,10568,12846,1.97,18254,,41.1,92.3,8107.0,18392.0,2.5,0.175,,,,,0,0,,0,0,0,0,0,0,0,0,0,0,,0,0,1.0,1.0,6080250.0,15.538153048786777,14.82,,,,,417,7
Bénairia,Chlef,Commune,13509,15697,1.51,20567,15697.0,41.0,90.7,8432.0,18654.0,4.0,0.25,1.0,1.0,0.0,0.0,0,0,,0,0,0,0,0,0,0,0,0,0,,0,0,1.0,1.0,6324000.0,15.659948995605044,14.82,36.3849733,1.3150523,بنايرية,02003,417,23
Hoceinia,Aïn Defla,Commune,7617,7799,0.24,8138,,41.1,92.3,8107.0,18392.0,2.5,0.175,,,,,0,0,,0,0,0,0,0,0,0,0,0,0,,0,0,0.0,0.0,6080250.0,3.0381530487867754,14.82,36.2531,2.4005,حسينية,44027,417,7
Birbouche,Aïn Defla,Commune,4686,4897,0.44,5301,,41.1,92.3,8107.0,18392.0,2.5,0.175,,,,,0,0,,0,0,0,0,0,0,0,0,0,0,,0,0,0.0,0.0,6080250.0,3.0381530487867754,14.82,,,,,417,7
El Maine,Aïn Defla,Commune,11319,12835,1.26,16094,,41.1,92.3,8107.0,18392.0,2.5,0.175,,,,,0,0,,0,0,0,0,0,0,0,0,0,0,,0,0,1.0,1.0,6080250.0,15.538153048786777,14.82,35.9869,1.7578,الماين,44034,417,7
El Abadia,Aïn Defla,Commune,33221,40697,2.05,58645,,41.1,92.3,8107.0,18392.0,2.5,0.175,,,,,0,0,,0,0,0,0,0,0,0,0,0,0,,0,0,3.0,3.0,6080250.0,40.538153048786775,14.82,36.2044,1.6837,العبادية,44011,417,7
Tacheta Zougagha,Aïn Defla,Commune,19711,23397,1.73,31855,,41.1,92.3,8107.0,18392.0,2.5,0.175,,,,,0,0,,0,0,0,0,0,0,0,0,0,0,,0,0,2.0,2.0,6080250.0,28.03815304878677,14.82,,,,,417,7
Aïn Lechiekh,Aïn Defla,Commune,12119,13745,1.27,17241,,41.1,92.3,8107.0,18392.0,2.5,0.175,,,,,0,0,,0,0,0,0,0,0,0,0,0,0,,0,0,1.0,1.0,6080250.0,15.538153048786777,14.82,,,,,417,7
Ouargla,Ouargla,Province Capital,112339,133024,1.7,180322,,44.3,90.7,371587.0,26625.0,0.0,0.0,19.0,18.0,1.0,0.0,1,1,ZI,1,10,0,1,0,1,4,1,3,0,ALLIANCE|CAAR|CAAT|CASH|CIAR,1,1,12.0,1.0,278690250.00000006,12.5,14.8,31.8974,5.3421,ورڨلة,30001,426,14
El Hadjira,Ouargla,Commune,12781,14965,1.59,19879,3205.0,36.8,74.0,7315.0,14710.0,0.0,0.0,,,,,0,0,,0,0,0,0,0,0,0,0,0,0,,0,0,1.0,1.0,5486250.0,15.241345695309642,14.76,32.548,5.5124,الحجيرة,30014,427,15
Hassi Khalifa,El Oued,Commune,25118,31784,2.38,48552,,39.55,90.5,7248.5,16622.0,0.0,0.0,,,,,0,0,,0,0,0,0,0,0,0,0,0,0,,0,0,3.0,3.0,5436375.0,40.21642437080683,14.76,,,,,427,11
Debila,El Oued,Commune,20088,25158,2.28,37723,,39.55,90.5,7248.5,16622.0,0.0,0.0,,,,,0,0,,0,0,0,0,0,0,0,0,0,0,,0,0,2.0,2.0,5436375.0,27.716424370806823,14.76,33.4418,6.9379,الدبيلة,39011,427,11
Ourmas,El Oued,Commune,5059,5900,1.55,7782,,39.55,90.5,7248.5,16622.0,0.0,0.0,,,,,0,0,,0,0,0,0,0,0,0,0,0,0,,0,0,0.0,0.0,5436375.0,2.7164243708068265,14.76,33.3477,6.7813,أورماس,39020,427,11
Oum Touyour,El Oued,Commune,9735,11069,1.29,13948,,39.55,90.5,7248.5,16622.0,0.0,0.0,1.0,1.0,0.0,0.0,0,0,,0,0,0,0,0,0,0,0,0,0,,0,0,0.0,0.0,5436375.0,2.7164243708068265,14.76,34.0879,5.8337,أم الطيور,39029,427,11
Trifaoui,El Oued,Commune,6361,8257,2.64,13206,,39.55,90.5,7248.5,16622.0,0.0,0.0,,,,,0,0,,0,0,0,0,0,0,0,0,0,0,,0,0,0.0,0.0,5436375.0,2.7164243708068265,14.76,33.3569,6.9351,تريفاوى,39017,427,11
Mih Ouansa,El Oued,Commune,11779,15593,2.84,25835,,39.55,90.5,7248.5,16622.0,0.0,0.0,,,,,0,0,,0,0,0,0,0,0,0,0,0,0,,0,0,1.0,1.0,5436375.0,15.216424370806829,14.76,33.1318,6.7044,مية ونسة,39026,427,11
El Hassaine,Mostaganem,Commune,8835,9680,0.92,11410,,42.0,88.75,9296.0,19882.5,2.0,0.15,,,,,0,0,,0,0,0,0,0,0,0,0,0,0,,0,0,0.0,0.0,6972000.0,3.483738835761917,14.69,,,,,434,11
Mekhatria,Aïn Defla,Commune,14963,17129,1.36,21848,6238.0,40.0,89.4,8739.0,19532.0,2.0,0.15,11.0,2.0,9.0,0.0,0,0,,0,0,0,0,0,0,0,0,0,0,,0,0,1.0,1.0,6554250.000000001,15.774999320753375,14.69,36.2376,1.9611,المخاطرية,44030,434,15
El Hassasna,Saïda,Commune,10448,13294,2.44,20510,7880.0,42.3,84.4,8676.0,17310.0,2.0,0.15,,,,,0,0,,0,0,0,0,0,0,0,0,0,0,,0,0,1.0,1.0,6507000.0,15.751389644908606,14.69,34.8248463,0.3121231,حساسنة,20010,434,6
Aïn Sekhouna,Saïda,Commune,5725,7129,2.22,10580,,43.9,89.8,8676.0,14339.5,2.0,0.15,,,,,0,0,,0,0,0,0,0,0,0,0,0,0,,0,0,0.0,0.0,6507000.0,3.2513896449086053,14.69,34.5044436,0.8354119,العين السخونة,20013,434,6
Tsabit,Adrar,Commune,11832,14895,2.33,22543,14895.0,37.5,94.9,8454.0,21393.0,2.0,0.15,,,,,0,0,,0,0,0,0,0,0,0,0,0,0,,0,0,1.0,1.0,6340500.000000001,15.668193644312742,14.69,28.3533514,-0.2255095,تسابيت,01008,434,6
Talmine,Adrar,Commune,9469,12768,3.03,21867,12768.0,37.3,78.5,8156.0,17166.0,2.0,0.15,,,,,0,0,,0,0,0,0,0,0,0,0,0,0,,0,0,1.0,1.0,6117000.0,15.556516129999377,14.69,27.9766155,-0.20396,,01024,434,6
Aïn El Arbaa,Aïn Témouchent,Commune,12443,15140,1.98,21552,18287.0,44.4,92.4,9569.0,19914.0,2.0,0.15,2.0,2.0,0.0,0.0,0,0,,0,0,0,0,0,0,0,0,0,0,,0,0,1.0,1.0,7176750.000000001,16.086047431089263,14.69,35.342,-0.8817,عين الاربعاء,46009,434,6
Hammam Guergour,Sétif,Commune,14295,15853,1.04,19098,2333.0,43.4,96.8,8289.0,18487.0,2.0,0.15,4.0,1.0,3.0,0.0,0,0,,0,0,0,0,0,0,0,0,0,0,,0,0,1.0,1.0,6216750.000000001,15.606358779005006,14.69,36.3463283,4.932553,حمام قرقور,19050,434,13
El Kennar Nouchfi,Jijel,Commune,13747,15852,1.43,20486,15852.0,44.9,95.1,9198.0,19482.0,2.0,0.15,200.0,200.0,0.0,0.0,0,0,,0,0,0,0,0,0,0,0,0,0,,0,0,1.0,1.0,6898500.000000001,15.947012673336715,14.69,36.8243495,5.9558128,القنار,18020,434,6
Hadjadj,Mostaganem,Commune,15835,17330,0.91,20386,14045.0,44.6,89.8,9092.0,18307.0,2.0,0.15,1.0,1.0,0.0,0.0,0,0,,0,0,0,0,0,0,0,0,0,0,,0,0,1.0,1.0,6819000.0,15.907288456835987,14.69,36.0963942,0.3163505,حجاج,27014,434,11
Youb,Saïda,Commune,15314,17355,1.26,21738,7492.0,43.8,85.3,9521.0,18543.0,2.0,0.15,,,,,0,0,,0,0,0,0,0,0,0,0,0,0,,0,0,1.0,1.0,7140750.0,16.068059106636102,14.69,34.9207469,-0.2177601,يوب,20006,434,6
El Ançor,Oran,Commune,7929,10882,3.22,19239,16970.0,49.3,88.9,9485.0,17103.0,2.0,0.15,14.0,14.0,0.0,0.0,0,0,,0,0,0,0,0,0,0,0,0,0,,0,0,1.0,1.0,7113750.0,16.054567863296235,14.69,,,,,434,17
Sidi Ahmed,Saïda,Commune,12205,14592,1.8,20126,7578.0,44.6,87.8,8976.0,17671.0,2.0,0.15,3.0,3.0,0.0,0.0,0,0,,0,0,0,0,0,0,0,0,0,0,,0,0,1.0,1.0,6732000.0,15.863816672740857,14.69,34.5499905,0.2527392,سيدي أحمد,20012,434,6
Marsat El Hadjadj,Oran,Commune,10284,12729,2.16,18687,11579.0,44.1,89.7,8241.0,16762.0,2.0,0.15,4.0,3.0,1.0,0.0,0,0,,0,0,0,0,0,0,0,0,0,0,,0,0,1.0,1.0,6180750.0,15.588370454551848,14.69,35.7198,-0.1675,مَرس ألحَجَاج,31008,434,17
Ouled Sabor,Sétif,Commune,10005,12510,2.26,18704,6983.0,43.9,90.4,8211.0,16908.0,2.0,0.15,22.0,20.0,2.0,0.0,0,0,,0,0,0,0,0,0,0,0,0,0,,0,0,1.0,1.0,6158250.0,15.577127751768622,14.69,36.180991,5.4739354,أولاد صـابر,19047,434,13
Ouled Maallah,Mostaganem,Commune,8948,9576,0.68,10820,,42.0,88.75,9296.0,19882.5,2.0,0.15,,,,,0,0,,0,0,0,0,0,0,0,0,0,0,,0,0,0.0,0.0,6972000.0,3.483738835761917,14.69,36.0072076,0.5870175,أولاد مع اللّه,27026,434,11
Beni Fouda,Sétif,Commune,16876,17667,0.46,19185,15853.0,42.6,95.5,8173.0,18322.0,2.0,0.15,62.0,58.0,4.0,0.0,0,0,,0,0,0,0,0,0,0,0,0,0,,0,0,1.0,1.0,6129750.000000001,15.562886994909867,14.69,36.2770368,5.4987834,بني فودة,19044,434,13
Aïn Kerma,El Tarf,Commune,12182,14377,1.67,19372,178616.0,41.9,94.0,8117.0,18210.0,2.0,0.15,6.0,5.0,1.0,0.0,0,0,,0,0,0,0,0,0,0,0,0,0,,0,0,1.0,1.0,6087750.0,15.541900616381184,14.69,35.5836,-0.975,عين الكرمة,31025,434,6
Hasnaoua,Bordj Bou Arreridj,Commune,18358,19485,0.6,21691,17140.0,38.7,83.6,8394.0,18134.0,2.0,0.15,59.0,34.0,25.0,0.0,0,0,,0,0,0,0,0,0,0,0,0,0,,0,0,1.0,1.0,6295500.000000001,15.645708238746291,14.69,36.0891,4.7955,حسناوة,34019,434,6
